#------------------------------------------------------------------------------
#
#   Created by  : BOB Utility
#   Created on  : 1988-01-11 01:11:11
#   Project     : BOB    
#   User        : BOB    
#
#------------------------------------------------------------------------------
~VERSION INFORMATION
VERS. 2.0 : CWLS Log ASCII Standard - version 2.0
WRAP. YES : Mulitple lines per depth step
~WELL INFORMATION
#MNEMONIC   .UNIT                                           VALUE :DESCRIPTION
#------------------------------------------------------------------------------
STRT        .FT                                         3000.0000 :START DEPTH
STOP        .FT                                         3010.0000 :STOP DEPTH
STEP        .FT                                            0.2500 :STEP
NULL        .                                           -999.2500 :NULL VALUE
COMP        .                                         COMPANY ABC :COMPANY
WELL        .                                      ABC TEST No. 3 :WELL
FLD         .                                              FIELD3 :FIELD
LOC         .                                             UNKNOWN :LOCATION
CNTY        .                                             UNKNOWN :COUNTY
STAT        .                                               TEXAS :STATE
SRVC        .                                             UNKNOWN :SERVICE COMPANY
DATE        .                                             UNKNOWN :LOG DATE
UWI         .                                          3121231234 :UNIQUE WELL ID
XCOORD      .                                          100.123456 :SURFACE X
YCOORD      .                                          100.123456 :SURFACE Y
LAT         .                                           10.000001 :LATITUDE
LON         .                                           10.000001 :LONGITUDE
ELEV        .FT                                          100.0000 :SURFACE ELEV
ELEV_TYPE   .                                                  KB :ELEV TYPE
~CURVE INFORMATION
#MNEMONIC .UNIT        API CODE       : CURVE DESCRIPTION
#------------------------------------------------------------------------------
DEPTH     .FT                         : Measured Depth
DBML      .FT          UNKNOWN        : DEPL:FT:r4:MAIN:v1 
DPHI      .v/v_decimal UNKNOWN        : DPHI:UNKNOWN:r4:MAIN:v1 
DT        .us/ft       UNKNOWN        : DT:UNKNOWN:MAIN:v1 
DT        .us/ft       UNKNOWN        : DT:UNKNOWN:r4:MAIN:v1 
GR        .API         UNKNOWN        : GR:UNKNOWN:r1:MAIN:v1 
GR        .API         UNKNOWN        : GR:UNKNOWN:r1:MAIN:v2 
GR        .API         UNKNOWN        : GR:UNKNOWN:r4:MAIN:v1 
~A
   3000.0000
    1000.0000       0.2100    -999.2500    -999.2500    -999.2500    -999.2500
    -999.2500
   3000.2500
    1001.0000       0.2100    -999.2500    -999.2500    -999.2500    -999.2500
    -999.2500
   3000.5000
    1002.0000       0.2100    -999.2500    -999.2500    -999.2500    -999.2500
    -999.2500
   3000.7500
    1003.0000       0.2100    -999.2500    -999.2500    -999.2500    -999.2500
    -999.2500
   3001.0000
    1004.0000       0.2200      90.0000     100.0000      10.0000    -999.2500
    -999.2500
   3001.2500
    1005.0000       0.2200      90.0000     100.0000      10.0000    -999.2500
    -999.2500
   3001.5000
    1006.0000       0.2200      90.0000     100.0000      10.0000    -999.2500
    -999.2500
   3001.7500
    1007.0000       0.2200      90.0000     100.0000      10.0000    -999.2500
    -999.2500
   3002.0000
    1008.0000       0.2300      90.0000     100.0000      30.0000    -999.2500
    -999.2500
   3002.2500
    1009.0000       0.2300      90.0000     100.0000      30.0000    -999.2500
    -999.2500
   3002.5000
    1010.0000       0.2300      90.0000     100.0000      30.0000    -999.2500
    -999.2500
   3002.7500
    1011.0000       0.2300      90.0000     100.0000      30.0000    -999.2500
    -999.2500
   3003.0000
    1012.0000       0.2400      90.0000     100.0000      30.0000    -999.2500
    -999.2500
   3003.2500
    1013.0000       0.2400      90.0000     100.0000      30.0000    -999.2500
    -999.2500
   3003.5000
    1014.0000       0.2400      90.0000     100.0000      30.0000    -999.2500
    -999.2500
   3003.7500
    1015.0000       0.2400      90.0000     100.0000      30.0000    -999.2500
    -999.2500
   3004.0000
    1016.0000       0.2500      90.0000     100.0000      20.0000    -999.2500
    -999.2500
   3004.2500
    1017.0000       0.2500      90.0000     100.0000      20.0000    -999.2500
    -999.2500
   3004.5000
    1018.0000       0.2500      90.0000     100.0000      20.0000    -999.2500
    -999.2500
   3004.7500
    1019.0000       0.2500      90.0000     100.0000      20.0000    -999.2500
    -999.2500
   3005.0000
    1020.0000       0.2600      90.0000     100.0000      35.0000    -999.2500
    -999.2500
   3005.2500
    1021.0000       0.2600      90.0000     100.0000      35.0000    -999.2500
    -999.2500
   3005.5000
    1022.0000       0.2600      90.0000     100.0000      35.0000    -999.2500
    -999.2500
   3005.7500
    1023.0000       0.2600      90.0000     100.0000      35.0000    -999.2500
    -999.2500
   3006.0000
    1024.0000       0.2700     100.0000     110.0000    -999.2500      10.2500
    -999.2500
   3006.2500
    1025.0000       0.2700     100.0000     110.0000    -999.2500      10.2500
    -999.2500
   3006.5000
    1026.0000       0.2700      95.0000     110.0000    -999.2500      10.2500
    -999.2500
   3006.7500
    1027.0000       0.2700      90.0000     110.0000    -999.2500      10.2500
    -999.2500
   3007.0000
    1028.0000       0.2800     110.0000     110.0000    -999.2500      20.2500
    -999.2500
   3007.2500
    1029.0000       0.2800     120.0000     110.0000    -999.2500      30.2500
    -999.2500
   3007.5000
    1030.0000       0.2800      99.0000     110.0000    -999.2500      40.2500
    -999.2500
   3007.7500
    1031.0000       0.2800      95.0000     110.0000    -999.2500      50.2500
    -999.2500
   3008.0000
    1032.0000       0.2900      90.0000     110.0000    -999.2500      60.2500
    -999.2500
   3008.2500
    1033.0000       0.2900     100.0000     110.0000    -999.2500      10.2500
    -999.2500
   3008.5000
    1034.0000       0.2900     100.0000     110.0000    -999.2500      20.2500
    -999.2500
   3008.7500
    1035.0000       0.2900     100.0000     110.0000    -999.2500      30.2500
    -999.2500
   3009.0000
    1036.0000       0.3000     100.0000     110.0000    -999.2500      40.2500
    -999.2500
   3009.2500
    1037.0000       0.3000     105.0000     110.0000    -999.2500      50.2500
    -999.2500
   3009.5000
    1038.0000       0.3000     105.0000     110.0000    -999.2500      60.2500
    -999.2500
   3009.7500
    1039.0000       0.3000     105.0000     110.0000    -999.2500      10.2500
    -999.2500
   3010.0000
    1040.0000       0.3100     105.0000     110.0000    -999.2500      20.2500
    -999.2500
