~Version Information Block
VERS .                 2.00:  CWLS LOG ASCII STANDARD - VERSION 2.00
WRAP .                   NO:  One line per depth step
~Well Information Block
#MNEM.UNIT        Data Type   Information
#---------- ----------------  -----------
STRT .F                7800:  START DEPTH
STOP .F                8368:  STOP DEPTH
STEP .F                0.25:  STEP
NULL .              -999.25:  NULL VALUE
WELL .                 TEST:  WELL
~Curve Information Block
#MNEM.UNIT         API CODE   Curve Description
#---------- ----------------  -----------------
DEPTH.F                    :  
AT10 .OHMM                 :  Loaded
AT30 .OHMM                 :  Loaded
AT90 .OHMM                 :  Loaded
CALI .IN                   :  Loaded
DTCO .US/F                 :  Filled log.
DTSM .US/F                 :  Loaded
DT_ED.US/F                 :  Edited log.
GR   .GAPI                 :  
NPHI .V/V                  :  Loaded
RHOB .G/C3                 :  Loaded
~Other Information Block
~A        DEPTH           AT10           AT30           AT90           CALI           DTCO           DTSM          DT_ED             GR           NPHI           RHOB 
# ...
      8100.0000         1.4904         1.0796         1.0429        13.5113       122.3250       284.3850       122.3250        73.1975         0.5004         2.3353 
      8100.2500         1.4831         1.0721         1.0345        13.5229       122.1740       284.4430       122.1740        72.6550         0.5051         2.3335 
      8100.5000         1.4758         1.0648         1.0251        13.5175       122.0140       284.6070       122.0140        73.7964         0.5028         2.3306 
      8100.7500         1.4726         1.0586         1.0172        13.5216       121.9100       284.6460       121.9100        73.6621         0.4997         2.3251 
      8101.0000         1.4695         1.0537         1.0108        13.5348       121.8600       284.5610       121.8600        72.2520         0.4958         2.3169 
      8101.2500         1.4656         1.0495         1.0066        13.5354       121.8930       284.8140       121.8930        72.1791         0.4795         2.3063 
      8101.5000         1.4618         1.0460         1.0045        13.5236       122.0070       285.4050       122.0070        73.4435         0.4507         2.2933 
      8101.7500         1.4565         1.0427         1.0033        13.4890       122.0470       286.5230       122.0470        73.9469         0.4457         2.2839 
      8102.0000         1.4513         1.0395         1.0030        13.4319       122.0120       288.1700       122.0120        73.6891         0.4646         2.2782 
      8102.2500         1.4428         1.0346         1.0016        13.3876       122.1250       289.6550       122.1250        71.9548         0.4856         2.2742 
      8102.5000         1.4343         1.0281         0.9990        13.3559       122.3850       290.9780       122.3850        68.7439         0.5086         2.2719 
      8102.7500         1.4204         1.0195         0.9945        13.3368       122.5930       291.8030       122.5930        66.6595         0.5258         2.2757 
      8103.0000         1.4065         1.0090         0.9881        13.3305       122.7490       292.1310       122.7490        65.7016         0.5371         2.2854 
      8103.2500         1.3945         1.0001         0.9824        13.3114       123.1350       292.4050       123.1350        66.9938         0.5291         2.2915 
      8103.5000         1.3825         0.9927         0.9775        13.2796       123.7530       292.6250       123.7530        70.5360         0.5017         2.2939 
      8103.7500         1.3837         0.9890         0.9748        13.2327       124.2140       292.3220       124.2140        72.8931         0.4855         2.2918 
      8104.0000         1.3849         0.9890         0.9743        13.1707       124.5200       291.4970       124.5200        74.0648         0.4806         2.2852 
      8104.2500         1.3973         0.9900         0.9735        13.0999       124.8270       291.2410       124.8270        75.1029         0.4782         2.2785 
      8104.5000         1.4097         0.9920         0.9722        13.0205       125.1350       291.5560       125.1350        76.0071         0.4782         2.2716 
      8104.7500         1.4204         0.9927         0.9693        12.9675       125.3910       291.7660       125.3910        76.6566         0.4919         2.2660 
      8105.0000         1.4311         0.9920         0.9646        12.9409       125.5950       291.8700       125.5950        77.0512         0.5193         2.2615 
      8105.2500         1.4346         0.9910         0.9603        12.9511       126.0070       291.9520       126.0070        78.0154         0.5349         2.2599 
      8105.5000         1.4381         0.9897         0.9564        12.9981       126.6260       292.0100       126.6260        79.5492         0.5389         2.2611 
      8105.7500         1.4354         0.9888         0.9542        13.0450       126.9000       292.0720       126.9000        80.5398         0.5344         2.2602 
      8106.0000         1.4328         0.9885         0.9537        13.0918       126.8310       292.1370       126.8310        80.9872         0.5215         2.2572 
      8106.2500         1.4259         0.9884         0.9541        13.1203       127.0350       291.9340       127.0350        81.0147         0.5144         2.2547 
      8106.5000         1.4190         0.9884         0.9554        13.1307       127.5120       291.4620       127.5120        80.6225         0.5133         2.2527 
      8106.7500         1.4124         0.9879         0.9567        13.1219       127.3130       291.2360       127.3130        80.2939         0.5075         2.2508 
      8107.0000         1.4058         0.9869         0.9579        13.0939       126.4400       291.2530       126.4400        80.0293         0.4970         2.2490 
      8107.2500         1.4014         0.9857         0.9592        13.0642       126.2120       291.6800       126.2120        80.0704         0.5050         2.2490 
      8107.5000         1.3970         0.9843         0.9606        13.0329       126.6290       292.5180       126.6290        80.4174         0.5314         2.2507 
      8107.7500         1.3928         0.9836         0.9630        13.0184       126.8370       293.2870       126.8370        80.2307         0.5399         2.2496 
      8108.0000         1.3886         0.9837         0.9663        13.0205       126.8350       293.9890       126.8350        79.5101         0.5305         2.2456 
      8108.2500         1.3844         0.9852         0.9705        13.0063       125.9980       294.1590       125.9980        79.1528         0.5336         2.2428 
      8108.5000         1.3802         0.9882         0.9756        12.9755       124.3240       293.7950       124.3240        79.1586         0.5493         2.2412 
      8108.7500         1.3810         0.9938         0.9818        12.9521       123.4340       293.4680       123.4340        78.2860         0.5635         2.2417 
      8109.0000         1.3819         1.0020         0.9891        12.9358       123.3280       293.1780       123.3280        76.5350         0.5763         2.2446 
      8109.2500         1.3937         1.0133         0.9983        12.9028       123.2210       293.1240       123.2210        77.0383         0.5797         2.2498 
      8109.5000         1.4055         1.0277         1.0093        12.8530       123.1130       293.3020       123.1130        79.7962         0.5737         2.2573 
      8109.7500         1.4251         1.0430         1.0215        12.7993       123.3660       293.3330       123.3660        81.5177         0.5605         2.2639 
      8110.0000         1.4447         1.0593         1.0347        12.7416       123.9820       293.2170       123.9820        82.2027         0.5398         2.2696 
      8110.2500         1.4595         1.0735         1.0464        12.6795       124.2640       292.9300       124.2640        82.5304         0.5200         2.2754 
      8110.5000         1.4743         1.0855         1.0565        12.6129       124.2120       292.4740       124.2120        82.5010         0.5010         2.2812 
      8110.7500         1.4776         1.0936         1.0634        12.5894       124.0870       291.9140       124.0870        80.6536         0.4954         2.2855 
      8111.0000         1.4809         1.0979         1.0671        12.6090       123.8900       291.2520       123.8900        76.9882         0.5034         2.2882 
      8111.2500         1.4778         1.0987         1.0688        12.6280       123.9260       291.6400       123.9260        75.5721         0.5110         2.2912 
      8111.5000         1.4748         1.0961         1.0685        12.6465       124.1970       293.0790       124.1970        76.4051         0.5184         2.2946 
      8111.7500         1.4741         1.0919         1.0675        12.6537       123.8570       294.6350       123.8570        77.0808         0.5209         2.2945 
