~Version Information Block
VERS .                 2.00:  CWLS LOG ASCII STANDARD - VERSION 2.00
WRAP .                  YES:  Multiple lines per depth step
~Well Information Block
#MNEM.UNIT        Data Type   Information
#---------- ----------------  -----------
STRT .F                3000:  START DEPTH
STOP .F                3120:  STOP DEPTH
STEP .F                 0.5:  STEP
NULL .              -999.25:  NULL VALUE
COMP .            Ewing Oil:  COMPANY
WELL .         Sue Ellen #4:  WELL
FLD  .      SouthFork Ranch:  FIELD
LOC  .                Plano:  LOCATION
CNTY .               Collin:  COUNTY
STAT .                Texas:  STATE
CTRY .                   US:  COUNTRY
API  .           1234512345:  API NUMBER
SRVC .  Unified Development:  SERVICE COMPANY
DATE .            1/11/1988:  LOG DATE
~Curve Information Block
#MNEM.UNIT         API CODE   Curve Description
#---------- ----------------  -----------------
DEPTH.F                    :  Depth
AO10 .OHMM                 :  ShalRes    NA
AO20 .OHMM                 :  ShalRes    NA
AO30 .OHMM                 :  MedRes     NA
AO60 .OHMM                 :  MedRes     NA
AO90 .OHMM                 :  XDeepRes   NA
AT10 .OHMM                 :  ShalRes    NA
AT20 .OHMM                 :  ShalRes    NA
AT30 .OHMM                 :  MedRes     NA
AT60 .OHMM                 :  MedRes     NA
AT90 .OHMM                 :  XDeepRes   NA
C_POR.%                    :  
C_RHOB.G/C3                 :  
C_RHOG.G/C3                 :  
C_SW .%                    :  
DT   .US/F                 :  Sonic
DT1R .US/F                 :  ShearSonic NA
DT2R .US/F                 :  ShearSonic NA
DT4P .US/F                 :  Sonic      NA
DT4S .US/F                 :  ShearSonic NA
DTCO .US/F                 :  Sonic      NA
NPHI .V/V                  :  Neutron    NA
NPOR .V/V                  :  Neutron    NA
PEFZ .B/E                  :  PEF        HRDD                              :NA
PHIT_311 .DEC              :  PhiT
RDEEP.OHMM                 :  XDeepRes   NA
RHO8 .G/C3                 :  Density    NA
RHOB .G/C3                 :  Density
RHOZ .G/C3                 :  Density    NA
SP   .MV                   :  SP         NA
SW_311.DEC                 :  Sw   
TEMP .F                    :  Temp
~Parameter Information Block
#MNEM.UNIT            Value   Description
#---------- ----------------  -----------
JUNK .                 0.28:  rifle range
RW   .OHMM             0.04:  Resistivity of Water
LATI .            34/34/4.4:  Latitude {DEG/MIN/SEC}
LONG .         -102/20/44.4:  Longitude {DEG/MIN/SEC}
B_JUNK.                   2:  B Factor
A_JUNK.                   2:  Saturation Speed
WELL_NAME.          well #4:  Well Name
~Other Information Block
~Ascii Log Data
# ...
         3108.0
       16.7595       14.6506       14.5689       14.8482       14.5593
       14.3407       13.6886       14.2460       14.5401       14.1857
     -999.2500     -999.2500     -999.2500     -999.2500       73.3813
      137.7670      138.0310       73.3813      139.5020       73.3813
      0.149400      0.139700        3.1063      0.060156       14.1857
        2.6680        2.6680        2.6679     -202.1250        0.9869
      160.0000
         3108.5
       16.3142       15.4784       15.3911       15.3451       15.0034
       14.0223       13.3492       13.8128       13.9964       13.5788
     -999.2500     -999.2500     -999.2500     -999.2500       73.1164
      136.3010      137.6930       73.1164      138.4110       73.1164
      0.141000      0.126600        3.1548      0.059471       13.5788
        2.6829        2.6829        2.6674     -201.1250        1.0000
      160.0000
         3109.0
        9.9717        9.9391       10.7793       10.9861       10.7946
       12.1776       11.4374       11.9048       12.1871       11.8211
     -999.2500     -999.2500     -999.2500     -999.2500       74.7627
      139.5200      142.5140       74.7627      140.7950       74.7627
      0.146300      0.164400        3.2061      0.063720       11.8211
        2.6722        2.6722        2.6569     -201.6250        1.0000
      160.0000
         3109.5
       11.7393       10.7474       11.4944       11.6151       11.3961
       11.7934       10.9117       11.4982       11.5994       11.3913
     -999.2500     -999.2500     -999.2500     -999.2500       74.8805
      141.2840      141.6640       74.8805      143.1790       74.8805
      0.155600      0.167100        3.1874      0.064023       11.3913
        2.6452        2.6452        2.6566     -201.8750        1.0000
      160.0000
         3110.0
       12.3918       11.8437       12.3470       12.4014       12.1645
       11.3848       10.7136       11.2640       10.9878       11.0022
     -999.2500     -999.2500     -999.2500     -999.2500       76.0484
      142.9900      143.9560       76.0484      144.8580       76.0484
      0.186000      0.146300        3.1614      0.067015       11.0022
        2.6434        2.6434        2.6609     -201.0000        1.0000
      160.0000
         3110.5
       10.1984        9.3769        9.5577        9.5295        9.3696
       10.7803       10.1697       10.4953       10.7517       10.6158
     -999.2500     -999.2500     -999.2500     -999.2500       75.9805
      144.6090      145.3840       75.9805      140.0420       75.9805
      0.200800      0.198300        3.1798      0.066842       10.6158
        2.6642        2.6642        2.6572     -203.5620        1.0000
      160.0000
         3111.0
       11.0439        9.8680       10.3047       10.4629       10.2823
       10.7488       10.1534       10.4710       11.0996       10.8100
     -999.2500     -999.2500     -999.2500     -999.2500       76.5343
      146.2740      146.5310       76.5343      143.4170       76.5343
      0.202500      0.205500        3.1918      0.068253       10.8100
        2.6706        2.6706        2.6462     -201.4380        0.9964
      160.0000
         3111.5
       11.9862       11.2668       11.6299       11.5632       11.3486
       10.9501       10.3803       10.9558       11.0890       10.8961
     -999.2500     -999.2500     -999.2500     -999.2500       77.7751
      147.2670      146.8190       77.7751      146.7920       77.7751
      0.182500      0.165700        3.1559      0.071395       10.8961
        2.6189        2.6189        2.6380     -201.4380        0.9488
      160.0000
         3112.0
       11.7378       10.5098       10.9706       11.2386       11.0295
       11.1099       10.4960       11.1120       11.2033       10.9726
     -999.2500     -999.2500     -999.2500     -999.2500       78.1531
      145.9520      144.1510       78.1531      147.3840       78.1531
      0.181900      0.161600        3.1051      0.072346       10.9726
        2.6532        2.6532        2.6462     -201.5620        0.9331
      160.0000
         3112.5
       12.3903       11.9692       12.1505       11.9071       11.6810
       10.6546       10.1789       10.4774       10.7175       10.5633
     -999.2500     -999.2500     -999.2500     -999.2500       77.3911
      145.3110      143.7560       77.3911      146.3680       77.3911
      0.196600      0.198700        3.1373      0.070426       10.5633
        2.6538        2.6538        2.6509     -200.8120        0.9769
      160.0000
         3113.0
        8.9444        8.2912        8.3662        8.4517        8.3183
       10.2636        9.6952        9.8863        9.9778        9.9864
     -999.2500     -999.2500     -999.2500     -999.2500       76.2560
      145.3890      143.3770       76.2560      143.8080       76.2560
      0.214400      0.207300        3.1928      0.067545        9.9864
        2.6449        2.6449        2.6549     -201.1880        1.0000
      160.0000
         3113.5
       11.4940        9.2010        9.7272       10.1889       10.0165
       10.9480       10.5125       10.7343       10.9223       10.8947
     -999.2500     -999.2500     -999.2500     -999.2500       70.9125
      143.6130      141.6390       70.9125      141.2470       70.9125
      0.196100      0.215400        3.1873      0.053751       10.8947
        2.6669        2.6669        2.6599     -200.8120        1.0000
      160.0000
         3114.0
       13.7530       13.6439       14.1971       14.1764       13.8561
       13.3700       12.6579       13.2596       13.6328       13.2066
     -999.2500     -999.2500     -999.2500     -999.2500       71.4657
      141.2190      138.0280       71.4657      138.6860       71.4657
      0.164600      0.170000        3.0924      0.055188       13.2066
        2.6907        2.6907        2.6722     -200.8750        1.0000
      160.0000
         3114.5
       20.9341       18.1739       17.3195       18.5000       17.9875
       15.7443       14.9102       15.8696       16.4411       15.8386
     -999.2500     -999.2500     -999.2500     -999.2500       72.1492
      139.4530      136.7060       72.1492      136.1260       72.1492
      0.130400      0.113000        3.0195      0.056963       15.8386
        2.6803        2.6803        2.6699     -201.0000        0.9864
      160.0000
         3115.0
       13.9642       15.1087       15.9715       14.8549       14.4668
       14.5968       13.7584       14.6389       14.8509       14.3884
     -999.2500     -999.2500     -999.2500     -999.2500       72.6730
      135.4960      134.7690       72.6730      133.4460       72.6730
      0.138600      0.123000        3.0042      0.058322       14.3884
        2.6652        2.6652        2.6607     -200.4380        1.0000
      160.0000
         3115.5
       12.6720       12.3993       12.6068       13.3624       13.0534
       13.3601       12.4228       13.0686       13.2036       12.7804
     -999.2500     -999.2500     -999.2500     -999.2500       71.8985
      136.7730      135.8810       71.8985      125.4660       71.8985
      0.159000      0.149900        3.0464      0.056312       12.7804
        2.6382        2.6382        2.6407     -200.2500        1.0000
      160.0000
         3116.0
       12.8171       10.3445       11.1144       11.3489       11.1411
       13.8470       12.6232       13.0103       12.9442       12.6783
     -999.2500     -999.2500     -999.2500     -999.2500       71.3827
      137.1210      136.3400       71.3827      130.4760       71.3827
      0.147300      0.171600        3.0554      0.054973       12.6783
        2.6472        2.6472        2.6339     -200.4380        1.0000
      160.0000
         3116.5
       21.3832       16.8590       16.0596       16.1377       15.7531
       16.2926       15.1336       15.4922       15.9760       15.1151
     -999.2500     -999.2500     -999.2500     -999.2500       73.7422
      138.4890      135.6920       73.7422      133.1850       73.7422
      0.116300      0.116500        3.0637      0.061089       15.1151
        2.6317        2.6317        2.6308     -199.5000        0.9415
      160.0000
