~Version Information Block
VERS .                 2.00:  CWLS LOG ASCII STANDARD - VERSION 2.00
WRAP .                   NO:  One line per depth step
~Well Information Block
#MNEM.UNIT        Data Type   Information
#---------- ----------------  -----------
STRT .M            500.0244:  START DEPTH
STOP .M            620.1156:  STOP DEPTH
STEP .M              0.1524:  STEP
NULL .              -999.25:  NULL VALUE
COMP .                     :  COMPANY
WELL .               WELL#2:  WELL
~Curve Information Block
#MNEM.UNIT         API CODE   Curve Description
#---------- ----------------  -----------------
DEPTH.M                    :  Measured Depth
CAL  .IN            UNKNOWN:  CAL:EXTERNAL:rC:NONE:v1
DRHO .G/C3          UNKNOWN:  ZCOR:EXTERNAL:rC:NONE:v1
DT   .US/F          UNKNOWN:  DT::rC:NONE:v1
DTS  .US/F          UNKNOWN:  DTS:EXTERNAL:rC:NONE:v1
GR   .GAPI          UNKNOWN:  GR:EXTERNAL:rC:NONE:v1
NPHI .V/V           UNKNOWN:  NPHI_NORM:v0
RHOB .G/C3          UNKNOWN:  Z3EN:EXTERNAL:rC:NONE:v1
RT   .OHMM          UNKNOWN:  M3RX:EXTERNAL:rC:NONE:v1
VP   .FT/S                 :  Output Velocity
~Parameter Information Block
#MNEM.UNIT            Value   Description
#---------- ----------------  -----------
ELEV_TYPE.                   KB:  ELEV TYPE
LAT  .             100.8026:  LATITUDE
LON  .             100.4617:  LONGITUDE
~Other Information Block
~A        DEPTH            CAL           DRHO             DT            DTS             GR           NPHI           RHOB             RT             VP
# ...
       569.5188       12.3710      0.016000      143.3370      370.1780       77.8190      0.487700        2.0830        1.1850     6976.5654
       569.6712       12.3720      0.015000      143.1230      369.6630       76.1970      0.471300        2.0720        1.1730     6986.9971
       569.8236       12.3780      0.013000      142.8210      367.7820       75.5290      0.441400        2.0700        1.1700     7001.7715
       569.9760       12.3820      0.015000      142.8110      367.2440       74.9710      0.427000        2.0780        1.1730     7002.2617
       570.1284       12.3800      0.018000      143.6310      367.6210       74.8580      0.431800        2.0890        1.1760     6962.2856
       570.2808       12.3760      0.017000      146.0580      368.6350       76.2190      0.437600        2.0940        1.1790     6846.5952
       570.4332       12.3740      0.013000      143.0230      368.3630       78.3920      0.429900        2.0920        1.1830     6991.8828
       570.5856       12.3740      0.009000      142.5790      368.4820       78.6060      0.422100        2.0860        1.1920     7013.6558
       570.7380       12.3770      0.010000      140.7710      363.2150       76.1360      0.423100        2.0840        1.2080     7103.7358
       570.8904       12.3780      0.017000      137.5970      358.7980       73.5580      0.419300        2.0930        1.2350     7267.6001
       571.0428       12.3750      0.022000      135.1570      348.8930       72.7010      0.401900        2.1100        1.2880     7398.8032
       571.1952       12.3740      0.021000      133.1130      343.4240       72.9040      0.383600        2.1280        1.3760     7512.4141
       571.3476       12.3730      0.020000      131.3500      338.6340       72.6510      0.378800        2.1370        1.4710     7613.2466
       571.5000       12.3700      0.019000      130.5800      334.8380       71.7970      0.389400        2.1400        1.5330     7658.1406
       571.6524       12.3670      0.020000      130.4970      330.9390       71.0070      0.401900        2.1430        1.5690     7663.0117
       571.8048       12.3650      0.023000      129.5860      330.4570       70.9360      0.401900        2.1490        1.5950     7716.8833
       571.9572       12.3650      0.023000      129.4810      329.2570       71.0620      0.387500        2.1500        1.6000     7723.1406
       572.1096       12.3700      0.023000      129.4410      327.8390       70.7160      0.374000        2.1480        1.5890     7725.5278
       572.2620       12.3770      0.028000      129.8210      328.7380       70.3190      0.374900        2.1480        1.5750     7702.9141
       572.4144       12.3810      0.031000      130.2980      328.9770       70.0030      0.382600        2.1470        1.5610     7674.7148
       572.5668       12.3820      0.026000      130.8290      330.3160       69.6070      0.385500        2.1380        1.5410     7643.5654
       572.7192       12.3790      0.018000      130.7990      333.5200       68.9250      0.380700        2.1270        1.5120     7645.3188
       572.8716       12.3780      0.016000      131.1390      337.1730       68.2100      0.380700        2.1190        1.4790     7625.4961
       573.0240       12.3820      0.021000      131.1130      338.6640       67.5960      0.385500        2.1180        1.4490     7627.0083
       573.1764       12.3810      0.023000      131.2820      342.4950       67.5090      0.391300        2.1160        1.4330     7617.1904
       573.3288       12.3730      0.020000      131.6770      342.9120       68.0470      0.392300        2.1130        1.4300     7594.3408
       573.4812       12.3670      0.020000      133.8790      343.3090       68.1470      0.386500        2.1130        1.4260     7469.4316
       573.6336       12.3660      0.024000      134.5610      342.8060       67.0740      0.377800        2.1120        1.4150     7431.5737
       573.7860       12.3650      0.027000      134.9800      341.1430       65.6720      0.385500        2.1070        1.3970     7408.5054
       573.9384       12.3670      0.032000      137.2120      339.2270       66.1020      0.410600        2.1070        1.3710     7287.9922
       574.0908       12.3720      0.033000      140.2700      340.0660       69.8360      0.446200        2.1180        1.3350     7129.1079
       574.2432       12.3760      0.028000      144.9270      338.1970       75.9150      0.487700        2.1330        1.2820     6900.0254
       574.3956       12.3750      0.023000      148.0080      339.1210       82.1670      0.502100        2.1420        1.2110     6756.3916
       574.5480       12.3690      0.024000      148.6920      363.7610       87.5150      0.487700        2.1440        1.1450     6725.3115
       574.7004       12.3660      0.023000      149.6910      397.0790       91.0690      0.484800        2.1400        1.1000     6680.4287
       574.8528       12.3670      0.019000      149.7440      400.2830       90.8130      0.498300        2.1300        1.0770     6678.0640
       575.0052       12.3660      0.017000      149.4300      397.4870       86.6210      0.478000        2.1220        1.0740     6692.0972
       575.1576       12.3630      0.021000      147.6460      395.4800       81.2190      0.441400        2.1200        1.0850     6772.9570
       575.3100       12.3600      0.024000      146.8220      396.5440       77.4070      0.437600        2.1220        1.0940     6810.9683
       575.4624       12.3630      0.020000      145.1640      392.6450       75.2040      0.455900        2.1180        1.0930     6888.7603
       575.6148       12.3690      0.015000      143.9370      383.8790       73.7020      0.453900        2.1080        1.0910     6947.4844
       575.7672       12.3740      0.014000      143.2700      376.9770       72.7310      0.439500        2.1000        1.0980     6979.8281
       575.9196       12.3750      0.017000      142.5940      369.0000       72.1590      0.435600        2.1030        1.1240     7012.9180
       576.0720       12.3730      0.017000      142.4980      362.5970       71.8640      0.429900        2.1120        1.1660     7017.6421
       576.2244       12.3730      0.017000      142.5570      362.8600       71.8640      0.423100        2.1160        1.2010     7014.7378
       576.3768       12.3730      0.020000      140.8750      359.1540       72.1630      0.433700        2.1090        1.1960     7098.4917
       576.5292       12.3710      0.021000      143.0380      360.6540       72.3610      0.458800        2.0930        1.1550     6991.1494
       576.6816       12.3710      0.018000      142.8890      362.3500       72.3550      0.472300        2.0810        1.1170     6998.4390
       576.8340       12.3730      0.018000      142.0030      364.3060       72.3610      0.471300        2.0780        1.0970     7042.1045
       576.9864       12.3720      0.020000      142.2740      363.9200       71.8210      0.464500        2.0780        1.0910     7028.6909
       577.1388       12.3720      0.018000      142.4650      364.1250       69.7390      0.460700        2.0730        1.0890     7019.2681
       577.2912       12.3730      0.013000      142.6920      364.4320       67.3610      0.458800        2.0640        1.0930     7008.1011
       577.4436       12.3690      0.013000      143.1150      362.3930       66.8430      0.457800        2.0560        1.1010     6987.3877
       577.5960       12.3660      0.017000      142.8960      363.8970       67.4590      0.453900        2.0560        1.1030     6998.0967
       577.7484       12.3700      0.019000      143.0370      362.9180       67.3190      0.444300        2.0620        1.0940     6991.1978
       577.9008       12.3740      0.019000      143.0380      362.4050       67.3170      0.438500        2.0680        1.0830     6991.1494
       578.0532       12.3740      0.020000      143.2270      362.4520       68.7110      0.438500        2.0690        1.0790     6981.9233
