~Version Information Block
VERS .                 2.00:  CWLS LOG ASCII STANDARD - VERSION 2.00
WRAP .                  YES:  Multiple lines per depth step
~Well Information Block
#MNEM.UNIT        Data Type   Information
#---------- ----------------  -----------
STRT .F                3000:  START DEPTH
STOP .F                3120:  STOP DEPTH
STEP .F                 0.5:  STEP
NULL .              -999.25:  NULL VALUE
COMP .            Ewing Oil:  COMPANY
WELL .         Sue Ellen #4:  WELL
FLD  .      SouthFork Ranch:  FIELD
LOC  .                Plano:  LOCATION
CNTY .               Collin:  COUNTY
STAT .                Texas:  STATE
CTRY .                   US:  COUNTRY
API  .           1234512345:  API NUMBER
SRVC .  Unified Development:  SERVICE COMPANY
DATE .            1/11/1988:  LOG DATE
~Curve Information Block
#MNEM.UNIT         API CODE   Curve Description
#---------- ----------------  -----------------
DEPTH.F                    :  Depth
AO10 .OHMM                 :  ShalRes    NA
AO20 .OHMM                 :  ShalRes    NA
AO30 .OHMM                 :  MedRes     NA
AO60 .OHMM                 :  MedRes     NA
AO90 .OHMM                 :  XDeepRes   NA
AT10 .OHMM                 :  ShalRes    NA
AT20 .OHMM                 :  ShalRes    NA
AT30 .OHMM                 :  MedRes     NA
AT60 .OHMM                 :  MedRes     NA
AT90 .OHMM                 :  XDeepRes   NA
C_POR.%                    :  
C_RHOB.G/C3                 :  
C_RHOG.G/C3                 :  
C_SW .%                    :  
DT   .US/F                 :  Sonic
DT1R .US/F                 :  ShearSonic NA
DT2R .US/F                 :  ShearSonic NA
DT4P .US/F                 :  Sonic      NA
DT4S .US/F                 :  ShearSonic NA
DTCO .US/F                 :  Sonic      NA
NPHI .V/V                  :  Neutron    NA
NPOR .V/V                  :  Neutron    NA
PEFZ .B/E                  :  PEF        HRDD                              :NA
PHIT_311 .DEC              :  PhiT
RDEEP.OHMM                 :  XDeepRes   NA
RHO8 .G/C3                 :  Density    NA
RHOB .G/C3                 :  Density
RHOZ .G/C3                 :  Density    NA
SP   .MV                   :  SP         NA
SW_311.DEC                 :  Sw   
TEMP .F                    :  Temp
~Parameter Information Block
#MNEM.UNIT            Value   Description
#---------- ----------------  -----------
JUNK .                 0.28:  rifle range
RW   .OHMM             0.04:  Resistivity of Water
LATI .            34/34/4.4:  Latitude {DEG/MIN/SEC}
LONG .         -102/20/44.4:  Longitude {DEG/MIN/SEC}
B_JUNK.                   2:  B Factor
A_JUNK.                   2:  Saturation Speed
WELL_NAME.          well #4:  Well Name
~Other Information Block
~Ascii Log Data
# ...
         3009.0
        8.1951        8.2491        8.9780        9.4182        9.2947
        9.3621        8.9403        9.4882        9.8353        9.7045
     -999.2500     -999.2500     -999.2500     -999.2500       77.8518
      150.3960      150.5900       77.8518      148.8870       77.8518
      0.206000      0.212700        3.2193      0.071588        9.7045
        2.6635        2.6635        2.6510     -202.9380        1.0000
      160.0000
         3009.5
       10.2351        9.6630       10.3913       10.9136       10.7599
       10.0823        9.4088       10.0462       10.4126       10.2930
     -999.2500     -999.2500     -999.2500     -999.2500       78.1250
      149.6970      149.6420       78.1250      149.6890       78.1250
      0.199500      0.213700        3.1845      0.072275       10.2930
        2.6701        2.6701        2.6558     -202.8750        0.9643
      160.0000
         3010.0
       10.8664       10.0404       10.8482       11.5471       11.3806
       10.6333        9.9448       10.5876       10.9842       10.8901
     -999.2500     -999.2500     -999.2500     -999.2500       78.2107
      147.8190      147.5530       78.2107      149.5960       78.2107
      0.188500      0.179600        3.1441      0.072490       10.8901
        2.6440        2.6440        2.6593     -202.3120        0.9347
      160.0000
         3010.5
       10.5174       10.3283       10.9537       11.6339       11.4677
        9.9407        9.5985       10.2296       10.6116       10.4917
     -999.2500     -999.2500     -999.2500     -999.2500       78.4209
      148.7880      146.6090       78.4209      149.5030       78.4209
      0.190100      0.170400        3.1423      0.073017       10.4917
        2.6718        2.6718        2.6649     -202.3120        0.9454
      160.0000
         3011.0
        7.8113        7.9342        8.7173        9.0623        8.9464
        9.3783        9.0814        9.6103        9.9965        9.9071
     -999.2500     -999.2500     -999.2500     -999.2500       77.6563
      148.1840      147.2050       77.6563      149.4100       77.6563
      0.193500      0.201100        3.2011      0.071096        9.9071
        2.6662        2.6662        2.6610     -202.6880        0.9992
      160.0000
         3011.5
       10.6665       10.1805       10.4670       10.8116       10.6669
       10.0613        9.8188       10.3289       10.6913       10.6539
     -999.2500     -999.2500     -999.2500     -999.2500       77.5654
      147.6950      146.9110       77.5654      149.9300       77.5654
      0.187500      0.193400        3.2175      0.070866       10.6539
        2.6757        2.6757        2.6660     -202.1880        0.9667
      160.0000
         3012.0
       11.7444       11.4865       12.0553       12.2406       12.0651
       10.7470       10.4622       11.0157       11.3931       11.3149
     -999.2500     -999.2500     -999.2500     -999.2500       77.6832
      147.2520      147.3090       77.6832      147.2200       77.6832
      0.182400      0.167000        3.2337      0.071163       11.3149
        2.6628        2.6628        2.6588     -202.3120        0.9341
      160.0000
         3012.5
       10.3467       10.1487       10.4388       10.4512       10.3145
       10.3478       10.1414       10.6348       10.9672       10.8323
     -999.2500     -999.2500     -999.2500     -999.2500       76.2197
      147.1350      146.1400       76.2197      146.0140       76.2197
      0.198500      0.183000        3.2028      0.067452       10.8323
        2.6658        2.6658        2.6595     -202.5620        1.0000
      160.0000
         3013.0
        9.7917        9.8791       10.1572       10.3061       10.1718
       10.1680        9.8591       10.4071       10.7600       10.5880
     -999.2500     -999.2500     -999.2500     -999.2500       77.5487
      148.3050      146.2210       77.5487      144.9120       77.5487
      0.205900      0.200400        3.1495      0.070824       10.5880
        2.6663        2.6663        2.6625     -202.6880        0.9703
      160.0000
         3013.5
       10.5577        9.5348       10.0184       10.1431       10.0013
       10.9513       10.2766       10.7539       11.1225       10.8930
     -999.2500     -999.2500     -999.2500     -999.2500       75.7262
      146.8710      147.4230       75.7262      143.9290       75.7262
      0.191600      0.185400        3.0870      0.066192       10.8930
        2.6696        2.6696        2.6652     -201.9380        1.0000
      160.0000
         3014.0
       13.7871       12.2201       12.5597       13.0810       12.8713
       12.1738       11.4144       11.9291       12.3402       12.0338
     -999.2500     -999.2500     -999.2500     -999.2500       75.3153
      146.9190      146.4960       75.3153      142.9470       75.3153
      0.167500      0.154400        3.0570      0.065140       12.0338
        2.6683        2.6683        2.6652     -202.3120        0.9896
      160.0000
         3014.5
       12.8911       12.4985       12.9567       13.3676       13.1471
       11.7764       11.5222       12.2591       12.5563       12.2591
     -999.2500     -999.2500     -999.2500     -999.2500       75.3153
      146.7170      145.7340       75.3153      141.9650       75.3153
      0.166600      0.146200        3.1424      0.065140       12.2591
        2.6494        2.6494        2.6546     -202.0000        0.9804
      160.0000
         3015.0
        9.8041        9.9232       10.7818       11.1589       10.9914
       10.9040       10.3487       11.0364       11.4044       11.0868
     -999.2500     -999.2500     -999.2500     -999.2500       75.1797
      147.9800      148.7300       75.1797      140.9820       75.1797
      0.177800      0.173000        3.2202      0.064792       11.0868
        2.6653        2.6653        2.6529     -201.3120        1.0000
      160.0000
         3015.5
       10.3943        9.3172       10.1087       10.3141       10.1612
       10.7745        9.9747       10.6382       11.0664       10.7929
     -999.2500     -999.2500     -999.2500     -999.2500       75.4051
      148.1340      148.5850       75.4051      146.5130       75.4051
      0.188600      0.198600        3.2453      0.065370       10.7929
        2.6582        2.6582        2.6509     -201.1880        1.0000
      160.0000
         3016.0
       12.0769       11.1613       11.8645       12.3877       12.1893
       11.0505       10.5128       11.1416       11.4756       11.2861
     -999.2500     -999.2500     -999.2500     -999.2500       75.8954
      148.6630      149.0620       75.8954      147.9520       75.8954
      0.187500      0.175000        3.1724      0.066624       11.2861
        2.6628        2.6628        2.6546     -201.1250        0.9990
      160.0000
         3016.5
       11.1295       10.9552       11.2935       11.6601       11.4791
       10.5971       10.3217       10.8742       11.0516       10.9526
     -999.2500     -999.2500     -999.2500     -999.2500       79.0096
      149.1440      148.8600       79.0096      150.9120       79.0096
      0.198200      0.172300        3.1374      0.074488       10.9526
        2.6475        2.6475        2.6536     -200.6250        0.9071
      160.0000
         3017.0
        8.8734        8.6546        9.0547        9.5050        9.3754
        9.3467        8.9188        9.4178        9.7215        9.6021
     -999.2500     -999.2500     -999.2500     -999.2500       76.8191
      151.9950      153.0920       76.8191      149.0350       76.8191
      0.211600      0.204500        3.1708      0.068977        9.6021
        2.6499        2.6499        2.6468     -200.5620        1.0000
      160.0000
         3017.5
        7.6167        7.5870        8.2458        8.5847        8.4799
        8.7878        8.3594        8.7168        9.0113        8.8902
     -999.2500     -999.2500     -999.2500     -999.2500       76.5478
      151.5100      146.8970       76.5478      144.9790       76.5478
      0.218000      0.250200        3.2175      0.068288        8.8902
        2.6546        2.6546        2.6414     -200.1880        1.0000
      160.0000
