~Version Information Block
VERS .                 2.00:  CWLS LOG ASCII STANDARD - VERSION 2.00
WRAP .                   NO:  One line per depth step
~Well Information Block
#MNEM.UNIT        Data Type   Information
#---------- ----------------  -----------
STRT .F                7800:  START DEPTH
STOP .F                8368:  STOP DEPTH
STEP .F                0.25:  STEP
NULL .              -999.25:  NULL VALUE
WELL .                 TEST:  WELL
~Curve Information Block
#MNEM.UNIT         API CODE   Curve Description
#---------- ----------------  -----------------
DEPTH.F                    :  
AT10 .OHMM                 :  Loaded
AT30 .OHMM                 :  Loaded
AT90 .OHMM                 :  Loaded
CALI .IN                   :  Loaded
DTCO .US/F                 :  Filled log.
DTSM .US/F                 :  Loaded
DT_ED.US/F                 :  Edited log.
GR   .GAPI                 :  
NPHI .V/V                  :  Loaded
RHOB .G/C3                 :  Loaded
~Other Information Block
~A        DEPTH           AT10           AT30           AT90           CALI           DTCO           DTSM          DT_ED             GR           NPHI           RHOB 
# ...
      8136.0000         1.6292         1.1124         1.0688        12.7420       122.0710       286.5480       122.0710        80.5770         0.4850         2.3437 
      8136.2500         1.6385         1.1166         1.0718        12.7978       122.3260       285.4940       122.3260        80.4487         0.4871         2.3391 
      8136.5000         1.6479         1.1230         1.0781        12.8562       122.4380       284.4740       122.4380        80.1398         0.4958         2.3357 
      8136.7500         1.6647         1.1321         1.0868        12.9042       122.6040       284.0890       122.6040        79.8149         0.4983         2.3332 
      8137.0000         1.6816         1.1437         1.0977        12.9416       122.8260       284.3400       122.8260        79.4740         0.4947         2.3315 
      8137.2500         1.6999         1.1547         1.1067        12.9797       122.9260       284.5210       122.9260        79.3132         0.4972         2.3311 
      8137.5000         1.7182         1.1651         1.1137        13.0185       122.9070       284.6330       122.9070        79.3326         0.5060         2.3320 
      8137.7500         1.7217         1.1709         1.1164        13.0062       122.6170       284.6820       122.6170        79.1958         0.5088         2.3337 
      8138.0000         1.7253         1.1722         1.1145        12.9427       122.0570       284.6680       122.0570        78.9028         0.5056         2.3362 
      8138.2500         1.7103         1.1693         1.1099        12.9019       121.6520       284.8090       121.6520        78.7785         0.5039         2.3363 
      8138.5000         1.6953         1.1621         1.1025        12.8837       121.4040       285.1030       121.4040        78.8228         0.5037         2.3341 
      8138.7500         1.6755         1.1547         1.0955        12.8627       121.2290       285.6030       121.2290        78.1981         0.5059         2.3323 
      8139.0000         1.6558         1.1472         1.0890        12.8389       121.1290       286.3090       121.1290        76.9043         0.5105         2.3310 
      8139.2500         1.6374         1.1405         1.0849        12.8104       121.2190       287.0130       121.2190        76.8117         0.5015         2.3303 
      8139.5000         1.6191         1.1344         1.0832        12.7770       121.4970       287.7170       121.4970        77.9205         0.4788         2.3301 
      8139.7500         1.6002         1.1280         1.0832        12.7134       121.4340       288.5860       121.4340        79.1586         0.4678         2.3305 
      8140.0000         1.5813         1.1211         1.0850        12.6194       121.0270       289.6190       121.0270        80.5260         0.4684         2.3312 
      8140.2500         1.5742         1.1177         1.0878        12.5296       120.8780       291.0890       120.8780        81.5231         0.4669         2.3353 
      8140.5000         1.5672         1.1178         1.0917        12.4438       120.9880       292.9950       120.9880        82.1500         0.4633         2.3428 
      8140.7500         1.5863         1.1255         1.0972        12.3913       121.0570       293.9300       121.0570        82.3797         0.4722         2.3496 
      8141.0000         1.6055         1.1407         1.1043        12.3724       121.0870       293.8910       121.0870        82.2124         0.4934         2.3559 
      8141.2500         1.6362         1.1588         1.1120        12.3647       120.7120       291.9300       120.7120        81.5623         0.5077         2.3596 
      8141.5000         1.6669         1.1795         1.1204        12.3684       119.9340       288.0470       119.9340        80.4293         0.5153         2.3607 
      8141.7500         1.6792         1.1941         1.1259        12.3834       119.1730       284.4130       119.1730        80.1519         0.5144         2.3577 
      8142.0000         1.6915         1.2024         1.1285        12.4096       118.4300       281.0280       118.4300        80.7302         0.5051         2.3507 
      8142.2500         1.6878         1.2043         1.1274        12.4371       117.9000       278.9190       117.9000        81.4634         0.5012         2.3467 
      8142.5000         1.6841         1.2000         1.1225        12.4657       117.5820       278.0850       117.5820        82.3515         0.5028         2.3457 
      8142.7500         1.6928         1.1973         1.1194        12.4951       115.5200       277.4110       115.5200        81.5910         0.4938         2.3419 
      8143.0000         1.7015         1.1960         1.1181        12.5253       111.7120       276.8970       111.7120        79.1817         0.4744         2.3354 
      8143.2500         1.7354         1.2011         1.1238        12.5631       109.1420       276.0400       109.1420        77.3858         0.4657         2.3308 
      8143.5000         1.7692         1.2125         1.1367        12.6086       107.8090       274.8400       107.8090        76.2032         0.4677         2.3283 
      8143.7500         1.8147         1.2280         1.1538        12.6565       109.3630       273.9010       109.3630        75.7251         0.4647         2.3273 
      8144.0000         1.8601         1.2475         1.1750        12.7067       113.8010       273.2230       113.8010        75.9515         0.4567         2.3278 
      8144.2500         1.8890         1.2637         1.1903        12.7859       115.3030       272.9240       115.3030        76.2439         0.4641         2.3307 
      8144.5000         1.9178         1.2767         1.1998        12.8941       113.8670       273.0050       113.8670        76.6022         0.4869         2.3360 
      8144.7500         1.9151         1.2825         1.2004        12.9246       113.0050       273.5860       113.0050        76.8145         0.5015         2.3389 
      8145.0000         1.9123         1.2810         1.1919        12.8777       112.7180       274.6670       112.7180        76.8806         0.5081         2.3392 
      8145.2500         1.8949         1.2769         1.1822        12.8777       112.6940       275.5430       112.6940        75.7353         0.5165         2.3396 
      8145.5000         1.8776         1.2704         1.1712        12.9246       112.9320       276.2120       112.9320        73.3786         0.5267         2.3400 
      8145.7500         1.8687         1.2657         1.1638        12.9535       113.3440       276.6560       113.3440        72.7154         0.5354         2.3374 
      8146.0000         1.8598         1.2628         1.1597        12.9641       113.9340       276.8720       113.9340        73.7456         0.5427         2.3316 
      8146.2500         1.8605         1.2611         1.1570        12.9827       114.2750       276.4020       114.2750        74.9193         0.5439         2.3280 
      8146.5000         1.8612         1.2606         1.1556        13.0095       114.3690       275.2450       114.3690        76.2363         0.5391         2.3265 
      8146.7500         1.8624         1.2590         1.1536        13.0056       114.4920       273.7420       114.4920        77.1044         0.5327         2.3255 
      8147.0000         1.8636         1.2564         1.1509        12.9713       114.6450       271.8960       114.6450        77.5234         0.5246         2.3251 
      8147.2500         1.8622         1.2527         1.1480        12.9200       114.7800       270.5650       114.7800        78.4370         0.5087         2.3238 
      8147.5000         1.8609         1.2481         1.1449        12.8517       114.8980       269.7470       114.8980        79.8452         0.4849         2.3215 
      8147.7500         1.8547         1.2429         1.1414        12.7941       114.7970       269.3640       114.7970        80.8131         0.4728         2.3214 
