~Version Information Block
VERS .                 2.00:  CWLS LOG ASCII STANDARD - VERSION 2.00
WRAP .                   NO:  One line per depth step
~Well Information Block
#MNEM.UNIT        Data Type   Information
#---------- ----------------  -----------
STRT .M            500.0244:  START DEPTH
STOP .M            620.1156:  STOP DEPTH
STEP .M              0.1524:  STEP
NULL .              -999.25:  NULL VALUE
COMP .                     :  COMPANY
WELL .               WELL#2:  WELL
~Curve Information Block
#MNEM.UNIT         API CODE   Curve Description
#---------- ----------------  -----------------
DEPTH.M                    :  Measured Depth
CAL  .IN            UNKNOWN:  CAL:EXTERNAL:rC:NONE:v1
DRHO .G/C3          UNKNOWN:  ZCOR:EXTERNAL:rC:NONE:v1
DT   .US/F          UNKNOWN:  DT::rC:NONE:v1
DTS  .US/F          UNKNOWN:  DTS:EXTERNAL:rC:NONE:v1
GR   .GAPI          UNKNOWN:  GR:EXTERNAL:rC:NONE:v1
NPHI .V/V           UNKNOWN:  NPHI_NORM:v0
RHOB .G/C3          UNKNOWN:  Z3EN:EXTERNAL:rC:NONE:v1
RT   .OHMM          UNKNOWN:  M3RX:EXTERNAL:rC:NONE:v1
VP   .FT/S                 :  Output Velocity
~Parameter Information Block
#MNEM.UNIT            Value   Description
#---------- ----------------  -----------
ELEV_TYPE.                   KB:  ELEV TYPE
LAT  .             100.8026:  LATITUDE
LON  .             100.4617:  LONGITUDE
~Other Information Block
~A        DEPTH            CAL           DRHO             DT            DTS             GR           NPHI           RHOB             RT             VP
# ...
       604.2660       12.3710      0.025000      141.7060      353.8670       61.2540      0.454900        2.0170        1.0570     7056.8647
       604.4184       12.3660      0.035000      141.9780      354.3750       61.3550      0.449100        2.0410        1.0820     7043.3447
       604.5708       12.3640      0.036000      142.0930      355.0470       62.0170      0.450100        2.0600        1.1100     7037.6440
       604.7232       12.3650      0.030000      141.2640      356.8000       63.3490      0.455900        2.0700        1.1380     7078.9438
       604.8756       12.3640      0.024000      141.6560      359.9560       65.9990      0.466500        2.0750        1.1700     7059.3550
       605.0280       12.3640      0.021000      142.0450      362.7580       70.1570      0.469400        2.0830        1.2060     7040.0225
       605.1804       12.3710      0.020000      142.1880      366.1560       74.9950      0.457800        2.1040        1.2390     7032.9419
       605.3328       12.3780      0.017000      141.5440      369.5690       79.5760      0.441400        2.1350        1.2630     7064.9404
       605.4852       12.3800      0.019000      142.4070      372.2070       83.1990      0.435600        2.1670        1.2800     7022.1270
       605.6376       12.3790      0.023000      142.6080      375.9980       85.1160      0.443300        2.1860        1.2920     7012.2290
       605.7900       12.3800      0.023000      142.8740      375.6610       85.1630      0.453000        2.1890        1.3010     6999.1743
       605.9424       12.3790      0.016000      143.3100      378.1850       84.8100      0.457800        2.1830        1.3110     6977.8804
       606.0948       12.3790      0.009000      143.2570      376.8150       85.5110      0.456800        2.1780        1.3210     6980.4614
       606.2472       12.3800      0.009000      143.2750      376.2560       86.4080      0.455900        2.1780        1.3280     6979.5850
       606.3996       12.3810      0.013000      142.7910      376.1370       86.1640      0.454900        2.1800        1.3320     7003.2427
       606.5520       12.3800      0.015000      142.8270      375.3580       84.9290      0.451100        2.1800        1.3320     7001.4775
       606.7044       12.3740      0.018000      142.8720      374.1030       84.3470      0.439500        2.1810        1.3300     6999.2725
       606.8568       12.3680      0.023000      142.9730      370.1490       84.9240      0.426000        2.1870        1.3290     6994.3271
       607.0092       12.3670      0.023000      142.6840      366.2090       85.0840      0.413500        2.1890        1.3310     7008.4941
       607.1616       12.3680      0.021000      142.0490      362.7770       84.9050      0.401900        2.1880        1.3340     7039.8247
       607.3140       12.3680      0.022000      142.2600      361.7540       85.5500      0.401900        2.1870        1.3400     7029.3833
       607.4664       12.3720      0.023000      143.0210      360.1400       85.8410      0.415400        2.1880        1.3410     6991.9805
       607.6188       12.3770      0.021000      143.1520      356.9440       84.8550      0.433700        2.1860        1.3300     6985.5820
       607.7712       12.3740      0.019000      142.9600      357.9240       83.9650      0.451100        2.1850        1.3150     6994.9634
       607.9236       12.3680      0.019000      143.1650      356.7020       83.3640      0.461700        2.1850        1.3100     6984.9478
       608.0760       12.3690      0.018000      143.1610      360.6790       82.3600      0.453000        2.1830        1.3120     6985.1426
       608.2284       12.3750      0.016000      143.1330      362.0410       81.9860      0.424100        2.1810        1.3190     6986.5093
       608.3808       12.3790      0.018000      143.1250      364.3060       83.1630      0.399000        2.1830        1.3300     6986.8994
       608.5332       12.3780      0.021000      142.8630      363.7310       84.4900      0.403800        2.1870        1.3430     6999.7129
       608.6856       12.3710      0.022000      142.8480      364.0050       84.6320      0.432700        2.1880        1.3540     7000.4478
       608.8380       12.3660      0.023000      140.9490      363.5370       84.3050      0.450100        2.1880        1.3670     7094.7646
       608.9904       12.3700      0.025000      140.6380      363.6920       83.8900      0.441400        2.1880        1.3810     7110.4536
       609.1428       12.3760      0.024000      143.0890      360.1680       82.6870      0.425000        2.1820        1.3830     6988.6572
       609.2952       12.3750      0.020000      143.2080      360.2140       82.2310      0.431800        2.1730        1.3530     6982.8506
       609.4476       12.3720      0.016000      143.2490      359.3190       84.0420      0.465500        2.1630        1.2960     6980.8521
       609.6000       12.3730      0.016000      143.8210      359.6030       86.8100      0.483800        2.1550        1.2460     6953.0874
       609.7524       12.3760      0.018000      144.5010      361.3840       88.4150      0.460700        2.1500        1.2300     6920.3672
       609.9048       12.3750      0.022000      146.6120      383.6320       88.4400      0.426000        2.1490        1.2290     6820.7241
       610.0572       12.3710      0.023000      149.8710      437.8830       87.7860      0.420200        2.1510        1.1880     6672.4048
       610.2096       12.3700      0.021000      151.6640      453.7820       87.5660      0.444300        2.1530        1.0980     6593.5225
       610.3620       12.3680      0.016000      153.8910      466.5480       88.7620      0.466500        2.1520        1.0080     6498.1055
       610.5144       12.3670      0.013000      156.0760      493.3220       91.9100      0.472300        2.1480        0.9530     6407.1348
       610.6668       12.3680      0.013000      157.7760      502.8380       95.1290      0.479000        2.1460        0.9300     6338.0996
       610.8192       12.3700      0.016000      157.7490      501.8460       95.6140      0.494400        2.1470        0.9250     6339.1846
       610.9716       12.3690      0.021000      157.8520      505.1320       93.8140      0.505000        2.1500        0.9230     6335.0479
       611.1240       12.3690      0.023000      158.8690      509.4150       92.8760      0.501200        2.1540        0.9180     6294.4941
       611.2764       12.3690      0.023000      159.6050      510.2290       93.6230      0.500200        2.1560        0.9130     6265.4683
       611.4288       12.3680      0.020000      158.9790      509.9600       95.0400      0.516600        2.1530        0.9120     6290.1387
       611.5812       12.3710      0.016000      159.0070      509.6850       96.3280      0.519500        2.1470        0.9120     6289.0312
       611.7336       12.3760      0.012000      158.1820      507.5200       96.8070      0.498300        2.1450        0.9160     6321.8315
       611.8860       12.3750      0.012000      158.6460      505.8020       95.6800      0.481900        2.1470        0.9230     6303.3423
       612.0384       12.3730      0.015000      157.4360      504.3320       94.0070      0.476100        2.1490        0.9310     6351.7871
       612.1908       12.3730      0.017000      156.4440      499.0240       93.1690      0.473200        2.1480        0.9430     6392.0635
       612.3432       12.3740      0.017000      156.7360      494.8400       92.5680      0.484800        2.1460        0.9580     6380.1553
       612.4956       12.3750      0.015000      156.1300      487.8160       91.5340      0.501200        2.1470        0.9710     6404.9189
       612.6480       12.3750      0.015000      155.5710      482.6810       90.8300      0.503100        2.1510        0.9780     6427.9331
       612.8004       12.3750      0.016000      155.1660      481.1710       90.8690      0.492500        2.1550        0.9780     6444.7109
