~Version Information Block
VERS .                 2.00:  CWLS LOG ASCII STANDARD - VERSION 2.00
WRAP .                   NO:  One line per depth step
~Well Information Block
#MNEM.UNIT        Data Type   Information
#---------- ----------------  -----------
STRT .F                7800:  START DEPTH
STOP .F                8368:  STOP DEPTH
STEP .F                0.25:  STEP
NULL .              -999.25:  NULL VALUE
WELL .                 TEST:  WELL
~Curve Information Block
#MNEM.UNIT         API CODE   Curve Description
#---------- ----------------  -----------------
DEPTH.F                    :  
AT10 .OHMM                 :  Loaded
AT30 .OHMM                 :  Loaded
AT90 .OHMM                 :  Loaded
CALI .IN                   :  Loaded
DTCO .US/F                 :  Filled log.
DTSM .US/F                 :  Loaded
DT_ED.US/F                 :  Edited log.
GR   .GAPI                 :  
NPHI .V/V                  :  Loaded
RHOB .G/C3                 :  Loaded
~Other Information Block
~A        DEPTH           AT10           AT30           AT90           CALI           DTCO           DTSM          DT_ED             GR           NPHI           RHOB 
# ...
      8172.0000         1.6089         1.1336         1.0908        13.2359       124.3340       281.1130       124.3340        80.7189         0.5338         2.3306 
      8172.2500         1.6288         1.1498         1.0971        13.2689       124.4000       282.2810       124.4000        80.7971         0.5348         2.3267 
      8172.5000         1.6487         1.1586         1.0978        13.2955       124.8270       284.1320       124.8270        80.8133         0.5358         2.3191 
      8172.7500         1.6402         1.1613         1.0970        13.3127       125.0550       286.2740       125.0550        80.7276         0.5359         2.3133 
      8173.0000         1.6317         1.1578         1.0949        13.3206       125.0820       288.7080       125.0820        80.5398         0.5353         2.3094 
      8173.2500         1.6123         1.1517         1.0935        13.3107       125.0470       290.6170       125.0470        80.2775         0.5348         2.3071 
      8173.5000         1.5930         1.1429         1.0930        13.2831       124.9480       292.0000       124.9480        79.9404         0.5343         2.3066 
      8173.7500         1.5739         1.1333         1.0908        13.2366       124.9540       293.0090       124.9540        79.8438         0.5306         2.3069 
      8174.0000         1.5548         1.1227         1.0870        13.1713       125.0680       293.6430       125.0680        79.9875         0.5238         2.3080 
      8174.2500         1.5339         1.1118         1.0807        13.1618       124.9320       294.0700       124.9320        79.9256         0.5301         2.3096 
      8174.5000         1.5131         1.1004         1.0718        13.2080       124.5480       294.2920       124.5480        79.6582         0.5494         2.3118 
      8174.7500         1.4911         1.0902         1.0637        13.2521       124.0740       294.6630       124.0740        80.1158         0.5612         2.3128 
      8175.0000         1.4690         1.0813         1.0563        13.2938       123.5090       295.1850       123.5090        81.2984         0.5654         2.3127 
      8175.2500         1.4535         1.0750         1.0516        13.3503       123.1530       295.6710       123.1530        82.6158         0.5690         2.3105 
      8175.5000         1.4380         1.0712         1.0496        13.4215       123.0060       296.1200       123.0060        84.0680         0.5721         2.3060 
      8175.7500         1.4297         1.0682         1.0476        13.4945       123.1020       296.5010       123.1020        84.5515         0.5642         2.3053 
      8176.0000         1.4215         1.0658         1.0457        13.5693       123.4410       296.8150       123.4410        84.0665         0.5454         2.3082 
      8176.2500         1.4163         1.0630         1.0422        13.5312       123.7710       296.9670       123.7710        84.2711         0.5264         2.3089 
      8176.5000         1.4112         1.0598         1.0372        13.3801       124.0920       296.9600       124.0920        85.1655         0.5070         2.3075 
      8176.7500         1.4123         1.0590         1.0341        13.2852       123.6730       296.4610       123.6730        85.4888         0.4963         2.3090 
      8177.0000         1.4133         1.0607         1.0330        13.2462       122.5120       295.4710       122.5120        85.2413         0.4945         2.3135 
      8177.2500         1.4273         1.0673         1.0372        13.2053       121.8160       293.3250       121.8160        84.3802         0.5002         2.3169 
      8177.5000         1.4413         1.0788         1.0466        13.1625       121.5870       290.0250       121.5870        82.9053         0.5135         2.3192 
      8177.7500         1.4699         1.0940         1.0601        13.1170       121.5940       286.1910       121.5940        81.9529         0.5337         2.3239 
      8178.0000         1.4984         1.1129         1.0776        13.0687       121.8400       281.8230       121.8400        81.5228         0.5607         2.3310 
      8178.2500         1.5352         1.1334         1.0958        13.0558       121.9020       277.6960       121.9020        81.4986         0.5758         2.3348 
      8178.5000         1.5720         1.1555         1.1149        13.0784       121.7800       273.8100       121.7800        81.8806         0.5791         2.3354 
      8178.7500         1.6028         1.1768         1.1326        13.0950       121.0550       270.9560       121.0550        81.3918         0.5779         2.3347 
      8179.0000         1.6336         1.1971         1.1489        13.1059       119.7270       269.1330       119.7270        80.0324         0.5723         2.3327 
      8179.2500         1.6505         1.2143         1.1630        13.1045       118.9170       268.0090       118.9170        79.9798         0.5616         2.3320 
      8179.5000         1.6674         1.2284         1.1750        13.0906       118.6270       267.5850       118.6270        81.2340         0.5460         2.3327 
      8179.7500         1.6773         1.2409         1.1861        13.0702       118.2700       267.1200       118.2700        81.6598         0.5308         2.3344 
      8180.0000         1.6871         1.2517         1.1964        13.0432       117.8460       266.6160       117.8460        81.2572         0.5159         2.3370 
      8180.2500         1.6936         1.2610         1.2060        13.0147       117.8930       266.3700       117.8930        81.1095         0.5040         2.3377 
      8180.5000         1.7000         1.2688         1.2149        12.9845       118.4090       266.3850       118.4090        81.2166         0.4951         2.3364 
      8180.7500         1.6976         1.2723         1.2200        12.9777       118.5810       266.5410       118.5810        80.7908         0.4861         2.3342 
      8181.0000         1.6952         1.2714         1.2214        12.9942       118.4070       266.8360       118.4070        79.8324         0.4769         2.3314 
      8181.2500         1.6839         1.2668         1.2181        13.0171       118.4410       267.1070       118.4410        79.7356         0.4708         2.3296 
      8181.5000         1.6727         1.2583         1.2103        13.0462       118.6850       267.3540       118.6850        80.5006         0.4677         2.3289 
      8181.7500         1.6579         1.2490         1.2012        13.0744       118.6770       268.7030       118.6770        80.8605         0.4634         2.3287 
      8182.0000         1.6431         1.2387         1.1908        13.1016       118.4170       271.1520       118.4170        80.8152         0.4578         2.3289 
      8182.2500         1.6256         1.2285         1.1817        13.1203       118.5550       273.3900       118.5550        81.2765         0.4646         2.3290 
      8182.5000         1.6080         1.2184         1.1739        13.1307       119.0910       275.4150       119.0910        82.2441         0.4840         2.3288 
      8182.7500         1.5892         1.2090         1.1676        13.1273       120.0550       278.0220       120.0550        82.6618         0.4999         2.3266 
      8183.0000         1.5703         1.2002         1.1627        13.1101       121.4470       281.2110       121.4470        82.5296         0.5123         2.3225 
      8183.2500         1.5556         1.1933         1.1588        13.0760       122.3140       283.4440       122.3140        82.5392         0.5254         2.3163 
      8183.5000         1.5409         1.1882         1.1559        13.0252       122.6550       284.7210       122.6550        82.6904         0.5392         2.3080 
      8183.7500         1.5324         1.1843         1.1536        12.9781       122.8540       285.5790       122.8540        82.9829         0.5370         2.3044 
