~Version Information Block
VERS .                 2.00:  CWLS LOG ASCII STANDARD - VERSION 2.00
WRAP .                  YES:  Multiple lines per depth step
~Well Information Block
#MNEM.UNIT        Data Type   Information
#---------- ----------------  -----------
STRT .F                3000:  START DEPTH
STOP .F                3120:  STOP DEPTH
STEP .F                 0.5:  STEP
NULL .              -999.25:  NULL VALUE
COMP .            Ewing Oil:  COMPANY
WELL .         Sue Ellen #4:  WELL
FLD  .      SouthFork Ranch:  FIELD
LOC  .                Plano:  LOCATION
CNTY .               Collin:  COUNTY
STAT .                Texas:  STATE
CTRY .                   US:  COUNTRY
API  .           1234512345:  API NUMBER
SRVC .  Unified Development:  SERVICE COMPANY
DATE .            1/11/1988:  LOG DATE
~Curve Information Block
#MNEM.UNIT         API CODE   Curve Description
#---------- ----------------  -----------------
DEPTH.F                    :  Depth
AO10 .OHMM                 :  ShalRes    NA
AO20 .OHMM                 :  ShalRes    NA
AO30 .OHMM                 :  MedRes     NA
AO60 .OHMM                 :  MedRes     NA
AO90 .OHMM                 :  XDeepRes   NA
AT10 .OHMM                 :  ShalRes    NA
AT20 .OHMM                 :  ShalRes    NA
AT30 .OHMM                 :  MedRes     NA
AT60 .OHMM                 :  MedRes     NA
AT90 .OHMM                 :  XDeepRes   NA
C_POR.%                    :  
C_RHOB.G/C3                 :  
C_RHOG.G/C3                 :  
C_SW .%                    :  
DT   .US/F                 :  Sonic
DT1R .US/F                 :  ShearSonic NA
DT2R .US/F                 :  ShearSonic NA
DT4P .US/F                 :  Sonic      NA
DT4S .US/F                 :  ShearSonic NA
DTCO .US/F                 :  Sonic      NA
NPHI .V/V                  :  Neutron    NA
NPOR .V/V                  :  Neutron    NA
PEFZ .B/E                  :  PEF        HRDD                              :NA
PHIT_311 .DEC              :  PhiT
RDEEP.OHMM                 :  XDeepRes   NA
RHO8 .G/C3                 :  Density    NA
RHOB .G/C3                 :  Density
RHOZ .G/C3                 :  Density    NA
SP   .MV                   :  SP         NA
SW_311.DEC                 :  Sw   
TEMP .F                    :  Temp
~Parameter Information Block
#MNEM.UNIT            Value   Description
#---------- ----------------  -----------
JUNK .                 0.28:  rifle range
RW   .OHMM             0.04:  Resistivity of Water
LATI .            34/34/4.4:  Latitude {DEG/MIN/SEC}
LONG .         -102/20/44.4:  Longitude {DEG/MIN/SEC}
B_JUNK.                   2:  B Factor
A_JUNK.                   2:  Saturation Speed
WELL_NAME.          well #4:  Well Name
~Other Information Block
~Ascii Log Data
# ...
         3072.0
       13.5950       11.8455       12.1136       12.4954       12.1996
       11.2692       10.5373       10.9763       11.3771       10.8898
     -999.2500     -999.2500     -999.2500     -999.2500       75.6819
      146.7570      147.4860       75.6819      145.7690       75.6819
      0.161600      0.144800        3.1038      0.066079       10.8898
        2.6644        2.6644        2.6660     -201.9380        1.0000
      160.0000
         3072.5
        9.2976        9.1566        9.9499       10.3756       10.1630
        9.9685        9.4756        9.9532       10.3143        9.9099
     -999.2500     -999.2500     -999.2500     -999.2500       75.8975
      147.4090      146.9770       75.8975      150.0410       75.8975
      0.178200      0.170600        3.1542      0.066630        9.9099
        2.6822        2.6822        2.6647     -201.8750        1.0000
      160.0000
         3073.0
        9.1872        8.5190        9.1772        9.4393        9.2661
        9.0835        8.6370        9.0862        9.4309        9.0754
     -999.2500     -999.2500     -999.2500     -999.2500       76.4403
      147.9300      146.8020       76.4403      148.6380       76.4403
      0.203900      0.202600        3.2606      0.068014        9.0754
        2.6529        2.6529        2.6530     -201.3120        1.0000
      160.0000
         3073.5
        8.3195        8.0923        8.4378        8.6495        8.5055
        8.6271        8.2424        8.6890        8.9334        8.6636
     -999.2500     -999.2500     -999.2500     -999.2500       76.9626
      148.2790      148.4500       76.9626      147.9260       76.9626
      0.215600      0.244300        3.3144      0.069341        8.6636
        2.6519        2.6519        2.6459     -201.5000        1.0000
      160.0000
         3074.0
        8.4174        7.9300        8.2868        8.4595        8.3237
        9.1924        8.5631        8.9435        9.2703        8.9782
     -999.2500     -999.2500     -999.2500     -999.2500       77.1528
      148.7790      147.2300       77.1528      149.2230       77.1528
      0.204000      0.201600        3.2775      0.069823        8.9782
        2.6633        2.6633        2.6486     -201.6250        1.0000
      160.0000
         3074.5
       11.1524       10.5679       10.9303       11.1747       10.9405
       10.2775        9.7373       10.1940       10.5132       10.1967
     -999.2500     -999.2500     -999.2500     -999.2500       76.6931
      148.9520      148.1650       76.6931      146.7040       76.6931
      0.189200      0.166800        3.1812      0.068657       10.1967
        2.6549        2.6549        2.6652     -201.5620        1.0000
      160.0000
         3075.0
       11.1263       10.9406       11.3429       11.6609       11.4222
       10.4524       10.0446       10.6271       10.8998       10.5266
     -999.2500     -999.2500     -999.2500     -999.2500       76.8337
      149.2900      148.4290       76.8337      152.6030       76.8337
      0.188800      0.176700        3.1667      0.069014       10.5266
        2.6927        2.6927        2.6717     -201.8120        0.9986
      160.0000
         3075.5
        9.1371        8.6516        9.2099        9.5196        9.3480
        9.7674        9.2798        9.7121       10.0362        9.7512
     -999.2500     -999.2500     -999.2500     -999.2500       76.9345
      147.8980      148.5510       76.9345      149.8320       76.9345
      0.205900      0.202000        3.2361      0.069270        9.7512
        2.6755        2.6755        2.6670     -202.8120        1.0000
      160.0000
         3076.0
        9.4268        8.6017        9.2029        9.6314        9.4620
        9.5293        8.9626        9.4208        9.6669        9.4507
     -999.2500     -999.2500     -999.2500     -999.2500       76.7160
      147.5400      148.7730       76.7160      149.5090       76.7160
      0.206300      0.212500        3.2906      0.068715        9.4507
        2.7061        2.7061        2.6588     -201.9380        1.0000
      160.0000
         3076.5
       10.6953        9.6146        9.9761       10.3694       10.1775
        9.6797        9.1720        9.6759        9.9137        9.7058
     -999.2500     -999.2500     -999.2500     -999.2500       76.9515
      148.6160      147.9260       76.9515      150.4650       76.9515
      0.207400      0.191800        3.2696      0.069313        9.7058
        2.6308        2.6308        2.6499     -202.8120        1.0000
      160.0000
         3077.0
        9.5177        9.0254        9.5658        9.9081        9.7330
        9.6989        9.2214        9.6946        9.9998        9.8401
     -999.2500     -999.2500     -999.2500     -999.2500       76.8325
      147.5590      146.8680       76.8325      150.5550       76.8325
      0.197500      0.193600        3.2108      0.069011        9.8401
        2.6430        2.6430        2.6481     -202.1880        1.0000
      160.0000
         3077.5
        9.4839        9.1299        9.4814        9.7629        9.5908
        9.7301        9.2475        9.7070       10.0741        9.8790
     -999.2500     -999.2500     -999.2500     -999.2500       75.6622
      147.6500      148.0280       75.6622      145.2800       75.6622
      0.208900      0.197100        3.1750      0.066028        9.8790
        2.6581        2.6581        2.6508     -202.3120        1.0000
      160.0000
         3078.0
       10.3565        9.9023       10.1381       10.6229       10.4239
       10.1715        9.7100       10.2547       10.7061       10.5267
     -999.2500     -999.2500     -999.2500     -999.2500       75.7806
      147.7400      146.4750       75.7806      148.1130       75.7806
      0.199000      0.213500        3.1502      0.066331       10.5267
        2.6654        2.6654        2.6616     -202.3750        1.0000
      160.0000
         3078.5
       10.9518       10.2183       10.9136       11.5130       11.2859
       10.7127       10.2231       10.8204       11.3001       11.1811
     -999.2500     -999.2500     -999.2500     -999.2500       76.2945
      145.2240      144.5120       76.2945      147.7450       76.2945
      0.190100      0.179400        3.1833      0.067643       11.1811
        2.6671        2.6671        2.6604     -202.6250        0.9886
      160.0000
         3079.0
       12.1021       11.0574       11.6535       12.5539       12.2944
       11.2642       10.6672       11.2748       11.7341       11.6197
     -999.2500     -999.2500     -999.2500     -999.2500       76.2558
      143.9320      143.3440       76.2558      145.8430       76.2558
      0.181800      0.166700        3.2210      0.067544       11.6197
        2.6811        2.6811        2.6680     -202.8750        0.9712
      160.0000
         3079.5
       11.0073       10.4277       11.0837       11.5927       11.3672
       10.5933       10.1517       10.7829       11.1970       11.1092
     -999.2500     -999.2500     -999.2500     -999.2500       76.0996
      144.5630      142.9280       76.0996      144.3140       76.0996
      0.200500      0.181400        3.2987      0.067146       11.1092
        2.6783        2.6783        2.6732     -202.3120        0.9991
      160.0000
         3080.0
        8.7250        8.9257        9.7181       10.0951        9.9099
       10.1927        9.7081       10.2123       10.4970       10.5235
     -999.2500     -999.2500     -999.2500     -999.2500       76.1361
      146.9350      143.7410       76.1361      142.8160       76.1361
      0.204100      0.214500        3.3276      0.067239       10.5235
        2.6723        2.6723        2.6724     -202.6250        1.0000
      160.0000
         3080.5
       10.6184        9.9346       10.3598       10.5999       10.4082
       10.8149       10.2296       10.8319       11.0952       11.1768
     -999.2500     -999.2500     -999.2500     -999.2500       76.1675
      145.1000      147.1950       76.1675      145.4210       76.1675
      0.191100      0.200200        3.3095      0.067319       11.1768
        2.6611        2.6611        2.6572     -203.0620        0.9935
      160.0000
