~Version Information Block
VERS .                 2.00:  CWLS LOG ASCII STANDARD - VERSION 2.00
WRAP .                  YES:  Multiple lines per depth step
~Well Information Block
#MNEM.UNIT        Data Type   Information
#---------- ----------------  -----------
STRT .F                3000:  START DEPTH
STOP .F                3120:  STOP DEPTH
STEP .F                 0.5:  STEP
NULL .              -999.25:  NULL VALUE
COMP .            Ewing Oil:  COMPANY
WELL .         Sue Ellen #4:  WELL
FLD  .      SouthFork Ranch:  FIELD
LOC  .                Plano:  LOCATION
CNTY .               Collin:  COUNTY
STAT .                Texas:  STATE
CTRY .                   US:  COUNTRY
API  .           1234512345:  API NUMBER
SRVC .  Unified Development:  SERVICE COMPANY
DATE .            1/11/1988:  LOG DATE
~Curve Information Block
#MNEM.UNIT         API CODE   Curve Description
#---------- ----------------  -----------------
DEPTH.F                    :  Depth
AO10 .OHMM                 :  ShalRes    NA
AO20 .OHMM                 :  ShalRes    NA
AO30 .OHMM                 :  MedRes     NA
AO60 .OHMM                 :  MedRes     NA
AO90 .OHMM                 :  XDeepRes   NA
AT10 .OHMM                 :  ShalRes    NA
AT20 .OHMM                 :  ShalRes    NA
AT30 .OHMM                 :  MedRes     NA
AT60 .OHMM                 :  MedRes     NA
AT90 .OHMM                 :  XDeepRes   NA
C_POR.%                    :  
C_RHOB.G/C3                 :  
C_RHOG.G/C3                 :  
C_SW .%                    :  
DT   .US/F                 :  Sonic
DT1R .US/F                 :  ShearSonic NA
DT2R .US/F                 :  ShearSonic NA
DT4P .US/F                 :  Sonic      NA
DT4S .US/F                 :  ShearSonic NA
DTCO .US/F                 :  Sonic      NA
NPHI .V/V                  :  Neutron    NA
NPOR .V/V                  :  Neutron    NA
PEFZ .B/E                  :  PEF        HRDD                              :NA
PHIT_311 .DEC              :  PhiT
RDEEP.OHMM                 :  XDeepRes   NA
RHO8 .G/C3                 :  Density    NA
RHOB .G/C3                 :  Density
RHOZ .G/C3                 :  Density    NA
SP   .MV                   :  SP         NA
SW_311.DEC                 :  Sw   
TEMP .F                    :  Temp
~Parameter Information Block
#MNEM.UNIT            Value   Description
#---------- ----------------  -----------
JUNK .                 0.28:  rifle range
RW   .OHMM             0.04:  Resistivity of Water
LATI .            34/34/4.4:  Latitude {DEG/MIN/SEC}
LONG .         -102/20/44.4:  Longitude {DEG/MIN/SEC}
B_JUNK.                   2:  B Factor
A_JUNK.                   2:  Saturation Speed
WELL_NAME.          well #4:  Well Name
~Other Information Block
~Ascii Log Data
         3000.0
        9.6437        8.9557        9.5180        9.4136        9.2499
        9.5418        8.9701        9.5336        9.7614        9.4971
     -999.2500     -999.2500     -999.2500     -999.2500       79.5780
      152.8360      153.7720       79.5780      151.8150       79.5780
      0.210300      0.199100        3.1594      0.075900        9.4971
        2.6635        2.6635        2.6698     -199.5620        0.9560
      160.0000
         3000.5
       11.0913       10.0862       10.5411       10.5687       10.3634
        9.5880        9.0734        9.6538        9.7935        9.5645
     -999.2500     -999.2500     -999.2500     -999.2500       79.3215
      153.3460      154.4610       79.3215      152.5870       79.3215
      0.211600      0.194300        3.1930      0.075264        9.5645
        2.6692        2.6692        2.6595     -198.8750        0.9607
      160.0000
         3001.0
        8.1016        7.9614        8.6607        9.0098        8.8604
        8.9118        8.4825        8.9896        9.2548        9.0083
     -999.2500     -999.2500     -999.2500     -999.2500       79.5819
      150.9750      153.6510       79.5819      152.0100       79.5819
      0.203500      0.199500        3.1906      0.075910        9.0083
        2.6633        2.6633        2.6565     -199.6250        0.9814
      160.0000
         3001.5
        8.7640        8.1368        9.1852        9.3214        9.1620
        8.9242        8.4951        8.9521        9.1302        8.9520
     -999.2500     -999.2500     -999.2500     -999.2500       80.3052
      154.9610      156.2220       80.3052      154.9070       80.3052
      0.203000      0.201600        3.1669      0.077695        8.9520
        2.6609        2.6609        2.6569     -199.8750        0.9619
      160.0000
         3002.0
        9.0563        8.5721        9.1459        9.3590        9.1992
        8.8592        8.4110        8.9445        9.2063        8.9385
     -999.2500     -999.2500     -999.2500     -999.2500       80.8587
      158.3080      159.2530       80.8587      155.5640       80.8587
      0.214700      0.208500        3.1458      0.079051        8.9385
        2.6620        2.6620        2.6605     -199.2500        0.9461
      160.0000
         3002.5
        8.3994        7.9963        8.9157        9.0617        8.9108
        8.5327        8.1977        8.6003        8.8647        8.6664
     -999.2500     -999.2500     -999.2500     -999.2500       82.0762
      158.8180      160.1540       82.0762      156.2210       82.0762
      0.217900      0.214400        3.1683      0.082006        8.6664
        2.6694        2.6694        2.6548     -199.7500        0.9262
      160.0000
         3003.0
        8.0943        7.6822        7.9373        7.9702        7.8553
        8.0837        7.7156        8.0817        8.3452        8.1954
     -999.2500     -999.2500     -999.2500     -999.2500       82.7560
      160.3480      161.3950       82.7560      157.8290       82.7560
      0.223900      0.224100        3.2287      0.083637        8.1954
        2.6627        2.6627        2.6485     -200.2500        0.9339
      160.0000
         3003.5
        7.5303        7.1407        7.4447        8.0238        7.9088
        7.5077        7.1598        7.4794        7.7606        7.6101
     -999.2500     -999.2500     -999.2500     -999.2500       83.5899
      161.0550      161.3000       83.5899      160.6680       83.5899
      0.232200      0.216000        3.2740      0.085618        7.6101
        2.6495        2.6495        2.6464     -199.6250        0.9467
      160.0000
         3004.0
        7.0377        6.6731        6.9600        7.3147        7.2207
        7.1822        6.8701        7.1309        7.3995        7.2728
     -999.2500     -999.2500     -999.2500     -999.2500       84.5142
      165.2820      166.8850       84.5142      160.6780       84.5142
      0.244000      0.240400        3.3045      0.087790        7.2728
        2.6489        2.6489        2.6564     -200.1880        0.9445
      160.0000
         3004.5
        7.0790        6.7915        7.0779        7.3591        7.2660
        7.1659        6.8523        7.1333        7.3811        7.2878
     -999.2500     -999.2500     -999.2500     -999.2500       83.9891
      166.6000      162.5580       83.9891      160.6870       83.9891
      0.254300      0.246300        3.3573      0.086559        7.2878
        2.6495        2.6495        2.6581     -200.5000        0.9569
      160.0000
         3005.0
        7.5139        7.0923        7.2862        7.5887        7.4915
        7.2628        6.9800        7.2545        7.5038        7.4227
     -999.2500     -999.2500     -999.2500     -999.2500       83.8952
      170.2110      161.8020       83.8952      163.5550       83.8952
      0.253500      0.230900        3.4184      0.086338        7.4227
        2.6897        2.6897        2.6570     -200.5000        0.9506
      160.0000
         3005.5
        7.1266        6.9719        7.2681        7.5284        7.4348
        7.3257        7.0325        7.2823        7.4932        7.4298
     -999.2500     -999.2500     -999.2500     -999.2500       82.7149
      165.9870      166.7060       82.7149      163.4270       82.7149
      0.249300      0.248800        3.4399      0.083538        7.4298
        2.6551        2.6551        2.6579     -200.8120        0.9820
      160.0000
         3006.0
        7.4075        7.0768        7.4454        7.7069        7.6108
        7.4154        7.1447        7.3883        7.5701        7.5134
     -999.2500     -999.2500     -999.2500     -999.2500       83.2097
      161.6770      160.1660       83.2097      166.6950       83.2097
      0.241100      0.244900        3.4342      0.084717        7.5134
        2.6464        2.6464        2.6547     -200.9380        0.9629
      160.0000
         3006.5
        7.8482        7.5801        7.7449        8.0485        7.9459
        7.4523        7.1923        7.4484        7.6411        7.5623
     -999.2500     -999.2500     -999.2500     -999.2500       82.8105
      163.2060      159.1470       82.8105      156.7940       82.8105
      0.237100      0.223800        3.4030      0.083767        7.5623
        2.6602        2.6602        2.6549     -201.3120        0.9707
      160.0000
         3007.0
        6.8170        6.7128        7.0148        7.0969        7.0192
        7.4821        7.1861        7.4178        7.6044        7.5363
     -999.2500     -999.2500     -999.2500     -999.2500       80.5399
      159.9250      158.7400       80.5399      149.7890       80.5399
      0.237200      0.251300        3.3661      0.078271        7.5363
        2.6602        2.6602        2.6502     -201.4380        1.0000
      160.0000
         3007.5
        8.3103        7.6466        7.9864        8.2227        8.1213
        8.3088        7.8413        8.1125        8.3203        8.2024
     -999.2500     -999.2500     -999.2500     -999.2500       79.1736
      157.6520      158.5660       79.1736      152.9090       79.1736
      0.221100      0.223400        3.3004      0.074896        8.2024
        2.6595        2.6595        2.6543     -202.1250        1.0000
      160.0000
         3008.0
       10.4127        9.3890        9.5281        9.8375        9.6976
        9.1196        8.7599        9.1809        9.4344        9.2413
     -999.2500     -999.2500     -999.2500     -999.2500       79.3905
      154.2840      157.8770       79.3905      155.4640       79.3905
      0.201900      0.175900        3.2486      0.075435        9.2413
        2.6513        2.6513        2.6540     -201.9380        0.9751
      160.0000
         3008.5
        8.9692        9.2761        9.9719       10.5045       10.3526
        9.1994        8.8821        9.4220        9.6632        9.5235
     -999.2500     -999.2500     -999.2500     -999.2500       78.4252
      150.2700      151.7190       78.4252      152.1750       78.4252
      0.195900      0.176200        3.2368      0.073028        9.5235
        2.6659        2.6659        2.6503     -202.5000        0.9922
      160.0000
