~Version Information Block
VERS .                 2.00:  CWLS LOG ASCII STANDARD - VERSION 2.00
WRAP .                   NO:  One line per depth step
~Well Information Block
#MNEM.UNIT        Data Type   Information
#---------- ----------------  -----------
STRT .F                7800:  START DEPTH
STOP .F                8368:  STOP DEPTH
STEP .F                0.25:  STEP
NULL .              -999.25:  NULL VALUE
WELL .                 TEST:  WELL
~Curve Information Block
#MNEM.UNIT         API CODE   Curve Description
#---------- ----------------  -----------------
DEPTH.F                    :  
AT10 .OHMM                 :  Loaded
AT30 .OHMM                 :  Loaded
AT90 .OHMM                 :  Loaded
CALI .IN                   :  Loaded
DTCO .US/F                 :  Filled log.
DTSM .US/F                 :  Loaded
DT_ED.US/F                 :  Edited log.
GR   .GAPI                 :  
NPHI .V/V                  :  Loaded
RHOB .G/C3                 :  Loaded
~Other Information Block
~A        DEPTH           AT10           AT30           AT90           CALI           DTCO           DTSM          DT_ED             GR           NPHI           RHOB 
# ...
      8316.0000         2.3125         1.3604         1.2508        13.1238       117.4040       289.9060       117.4040        88.3648         0.4561         2.3272 
      8316.2500         2.2813         1.3570         1.2493        13.0877       117.1590       290.8710       117.1590        88.0080         0.4470         2.3256 
      8316.5000         2.2500         1.3499         1.2439        13.0065       117.0160       291.1790       117.0160        87.0662         0.4385         2.3245 
      8316.7500         2.1962         1.3375         1.2344        12.8903       117.1730       294.3930       117.1730        87.0035         0.4384         2.3263 
      8317.0000         2.1423         1.3198         1.2208        12.7391       117.6300       300.5110       117.6300        87.8198         0.4469         2.3310 
      8317.2500         2.0970         1.3015         1.2074        12.6362       118.4380       298.9130       118.4380        86.4010         0.4582         2.3384 
      8317.5000         2.0518         1.2828         1.1941        12.5817       119.5980       289.5990       119.5980        82.7470         0.4725         2.3484 
      8317.7500         2.0346         1.2692         1.1842        12.5681       120.1000       284.8750       120.1000        80.9417         0.4768         2.3542 
      8318.0000         2.0174         1.2610         1.1777        12.5954       119.9450       284.7400       119.9450        80.9850         0.4710         2.3558 
      8318.2500         2.0228         1.2584         1.1752        12.6193       120.2290       284.4260       120.2290        82.1703         0.4623         2.3530 
      8318.5000         2.0283         1.2615         1.1767        12.6399       120.9510       283.9320       120.9510        84.4975         0.4505         2.3459 
      8318.7500         2.0392         1.2661         1.1803        12.6583       121.3380       285.1040       121.3380        86.0530         0.4367         2.3381 
      8319.0000         2.0501         1.2721         1.1859        12.6745       121.3890       287.9430       121.3890        86.8370         0.4206         2.3297 
      8319.2500         2.0563         1.2763         1.1904        12.6813       121.0290       291.0280       121.0290        87.5947         0.4171         2.3254 
      8319.5000         2.0624         1.2787         1.1938        12.6788       120.2570       294.3610       120.2570        88.3262         0.4261         2.3254 
      8319.7500         2.0683         1.2808         1.1954        12.6739       119.8570       295.7790       119.8570        88.6628         0.4421         2.3240 
      8320.0000         2.0742         1.2828         1.1954        12.6666       119.8270       295.2810       119.8270        88.6042         0.4652         2.3211 
      8320.2500         2.0826         1.2857         1.1955        12.6536       119.9470       293.7320       119.9470        87.8325         0.4853         2.3199 
      8320.5000         2.0910         1.2896         1.1959        12.6348       120.2150       291.1300       120.2150        86.3477         0.5022         2.3204 
      8320.7500         2.0906         1.2922         1.1969        12.6369       120.2900       288.5400       120.2900        85.2250         0.5055         2.3234 
      8321.0000         2.0902         1.2935         1.1986        12.6601       120.1720       285.9610       120.1720        84.4644         0.4949         2.3289 
      8321.2500         2.0763         1.2924         1.1997        12.6721       119.6800       284.2580       119.6800        84.0396         0.4864         2.3367 
      8321.5000         2.0624         1.2889         1.2003        12.6730       118.8160       283.4300       118.8160        83.9508         0.4798         2.3469 
      8321.7500         2.0534         1.2874         1.2024        12.6741       118.3350       282.7320       118.3350        83.7824         0.4707         2.3514 
      8322.0000         2.0444         1.2879         1.2060        12.6753       118.2380       282.1640       118.2380        83.5346         0.4589         2.3503 
      8322.2500         2.0570         1.2939         1.2141        12.6725       118.2550       281.5130       118.2550        83.1707         0.4613         2.3446 
      8322.5000         2.0696         1.3053         1.2268        12.6657       118.3860       280.7790       118.3860        82.6907         0.4779         2.3344 
      8322.7500         2.0891         1.3182         1.2404        12.6735       118.3790       280.5650       118.3790        81.9229         0.4865         2.3291 
      8323.0000         2.1086         1.3328         1.2548        12.6959       118.2310       280.8700       118.2310        80.8675         0.4871         2.3288 
      8323.2500         2.1056         1.3411         1.2620        12.6945       118.2880       280.4060       118.2880        80.7213         0.4900         2.3292 
      8323.5000         2.1026         1.3432         1.2618        12.6693       118.5500       279.1730       118.5500        81.4841         0.4950         2.3304 
      8323.7500         2.0809         1.3385         1.2546        12.6421       118.5850       277.8700       118.5850        81.4039         0.5004         2.3326 
      8324.0000         2.0592         1.3271         1.2404        12.6128       118.3930       276.4970       118.3930        80.4808         0.5061         2.3359 
      8324.2500         2.0432         1.3153         1.2275        12.6004       118.5140       276.0110       118.5140        80.5399         0.5048         2.3374 
      8324.5000         2.0272         1.3033         1.2159        12.6051       118.9480       276.4130       118.9480        81.5812         0.4965         2.3372 
      8324.7500         2.0253         1.2953         1.2098        12.6078       119.6110       276.9160       119.6110        82.4364         0.4880         2.3368 
      8325.0000         2.0235         1.2914         1.2093        12.6086       120.5010       277.5180       120.5010        83.1055         0.4792         2.3363 
      8325.2500         2.0389         1.2923         1.2122        12.6158       120.7020       277.8240       120.7020        83.3680         0.4685         2.3358 
      8325.5000         2.0542         1.2981         1.2186        12.6294       120.2150       277.8360       120.2150        83.2241         0.4558         2.3354 
      8325.7500         2.0853         1.3070         1.2250        12.6502       119.4230       278.0120       119.4230        83.8871         0.4486         2.3358 
      8326.0000         2.1163         1.3191         1.2315        12.6780       118.3260       278.3540       118.3260        85.3569         0.4468         2.3369 
      8326.2500         2.1370         1.3300         1.2365        12.6923       117.9370       279.3290       117.9370        86.5841         0.4529         2.3374 
      8326.5000         2.1578         1.3398         1.2401        12.6931       118.2550       280.9360       118.2550        87.5686         0.4669         2.3373 
      8326.7500         2.1410         1.3431         1.2405        12.6894       118.6840       282.7740       118.6840        88.0935         0.4780         2.3363 
      8327.0000         2.1242         1.3400         1.2378        12.6812       119.2230       284.8430       119.2230        88.1586         0.4861         2.3344 
      8327.2500         2.0870         1.3311         1.2314        12.6752       119.7660       286.2910       119.7660        87.6969         0.4918         2.3342 
      8327.5000         2.0498         1.3161         1.2213        12.6714       120.3160       287.1170       120.3160        86.7084         0.4950         2.3357 
      8327.7500         2.0275         1.3019         1.2114        12.6691       121.0570       286.7270       121.0570        86.0394         0.4884         2.3358 
