~Version Information Block
VERS .                 2.00:  CWLS LOG ASCII STANDARD - VERSION 2.00
WRAP .                   NO:  One line per depth step
~Well Information Block
#MNEM.UNIT        Data Type   Information
#---------- ----------------  -----------
STRT .F                7800:  START DEPTH
STOP .F                8368:  STOP DEPTH
STEP .F                0.25:  STEP
NULL .              -999.25:  NULL VALUE
WELL .                 TEST:  WELL
~Curve Information Block
#MNEM.UNIT         API CODE   Curve Description
#---------- ----------------  -----------------
DEPTH.F                    :  
AT10 .OHMM                 :  Loaded
AT30 .OHMM                 :  Loaded
AT90 .OHMM                 :  Loaded
CALI .IN                   :  Loaded
DTCO .US/F                 :  Filled log.
DTSM .US/F                 :  Loaded
DT_ED.US/F                 :  Edited log.
GR   .GAPI                 :  
NPHI .V/V                  :  Loaded
RHOB .G/C3                 :  Loaded
~Other Information Block
~A        DEPTH           AT10           AT30           AT90           CALI           DTCO           DTSM          DT_ED             GR           NPHI           RHOB 
# ...
      7908.0000         1.5138         1.1415         1.1165        12.9594       122.1670       286.3550       122.1670        69.7831         0.4969         2.3114 
      7908.2500         1.5122         1.1397         1.1148        13.0297       122.1760       286.9040       122.1760        70.1180         0.5035         2.3224 
      7908.5000         1.5106         1.1372         1.1117        13.0950       122.0440       287.9360       122.0440        70.3162         0.4968         2.3304 
      7908.7500         1.5058         1.1346         1.1080        13.1427       121.9080       289.7960       121.9080        69.7959         0.4929         2.3333 
      7909.0000         1.5010         1.1320         1.1039        13.1726       121.7680       292.4840       121.7680        68.5571         0.4919         2.3311 
      7909.2500         1.4958         1.1300         1.1006        13.1226       121.8800       293.4690       121.8800        68.3199         0.4836         2.3248 
      7909.5000         1.4906         1.1287         1.0983        12.9926       122.2470       292.7530       122.2470        69.0842         0.4679         2.3143 
      7909.7500         1.4890         1.1275         1.0973        12.8984       122.4100       292.2810       122.4100        69.3770         0.4588         2.3066 
      7910.0000         1.4875         1.1265         1.0978        12.8400       122.3700       292.0560       122.3700        69.1980         0.4563         2.3017 
      7910.2500         1.4889         1.1260         1.0990        12.8106       122.4120       290.9540       122.4120        69.5233         0.4602         2.2985 
      7910.5000         1.4902         1.1259         1.1010        12.8106       122.5350       288.9750       122.5350        70.3528         0.4704         2.2971 
      7910.7500         1.4908         1.1265         1.1025        12.8072       122.7630       287.4450       122.7630        70.1895         0.4751         2.2975 
      7911.0000         1.4914         1.1278         1.1035        12.8004       123.0950       286.3650       123.0950        69.0333         0.4741         2.2996 
      7911.2500         1.4893         1.1285         1.1035        12.7811       123.2770       285.6650       123.2770        68.9563         0.4755         2.3013 
      7911.5000         1.4873         1.1288         1.1023        12.7491       123.3070       285.3480       123.3070        69.9583         0.4792         2.3025 
      7911.7500         1.4835         1.1277         1.1005        12.7341       123.0810       285.1120       123.0810        70.7025         0.4861         2.3048 
      7912.0000         1.4796         1.1252         1.0982        12.7362       122.6000       284.9580       122.6000        71.1888         0.4961         2.3083 
      7912.2500         1.4764         1.1225         1.0957        12.7448       122.4740       285.1920       122.4740        71.5484         0.5050         2.3081 
      7912.5000         1.4731         1.1193         1.0933        12.7597       122.7030       285.8120       122.7030        71.7813         0.5128         2.3040 
      7912.7500         1.4731         1.1169         1.0908        12.7703       122.8540       287.0570       122.8540        71.4659         0.5103         2.3021 
      7913.0000         1.4730         1.1153         1.0884        12.7764       122.9240       288.9270       122.9240        70.6023         0.4975         2.3022 
      7913.2500         1.4747         1.1138         1.0858        12.7780       122.9460       290.2840       122.9460        69.8027         0.4850         2.3034 
      7913.5000         1.4764         1.1124         1.0830        12.7752       122.9170       291.1280       122.9170        69.0671         0.4726         2.3058 
      7913.7500         1.4769         1.1109         1.0806        12.7491       122.7010       291.3730       122.7010        68.8978         0.4606         2.3066 
      7914.0000         1.4774         1.1092         1.0788        12.6996       122.2970       291.0190       122.2970        69.2946         0.4490         2.3061 
      7914.2500         1.4777         1.1086         1.0785        12.6866       121.8110       290.6170       121.8110        69.4349         0.4548         2.3045 
      7914.5000         1.4780         1.1091         1.0798        12.7104       121.2440       290.1650       121.2440        69.3185         0.4780         2.3018 
      7914.7500         1.4768         1.1095         1.0812        12.7318       120.8400       289.3820       120.8400        68.8524         0.4861         2.2982 
      7915.0000         1.4756         1.1098         1.0828        12.7508       120.5960       288.2640       120.5960        68.0368         0.4789         2.2937 
      7915.2500         1.4690         1.1082         1.0820        12.7593       120.7160       287.3680       120.7160        68.2249         0.4857         2.2933 
      7915.5000         1.4623         1.1045         1.0791        12.7573       121.1980       286.6950       121.1980        69.4167         0.5064         2.2970 
      7915.7500         1.4517         1.1000         1.0751        12.7628       120.9080       286.4270       120.9080        70.4935         0.5179         2.3019 
      7916.0000         1.4411         1.0947         1.0700        12.7757       119.8460       286.5610       119.8460        71.4551         0.5202         2.3080 
      7916.2500         1.4318         1.0904         1.0663        12.7362       119.7490       287.2410       119.7490        71.5306         0.5224         2.3137 
      7916.5000         1.4225         1.0869         1.0641        12.6445       120.6150       288.4660       120.6150        70.7200         0.5245         2.3189 
      7916.7500         1.4177         1.0847         1.0632        12.5982       120.9450       289.7550       120.9450        70.3564         0.5181         2.3211 
      7917.0000         1.4128         1.0837         1.0637        12.5974       120.7430       291.1080       120.7430        70.4397         0.5030         2.3204 
      7917.2500         1.4131         1.0834         1.0642        12.6017       120.5250       292.3530       120.5250        70.5033         0.4830         2.3198 
      7917.5000         1.4133         1.0837         1.0646        12.6113       120.2950       293.4870       120.2950        70.5473         0.4582         2.3193 
      7917.7500         1.4172         1.0843         1.0648        12.6131       120.0730       294.3630       120.0730        70.2131         0.4429         2.3168 
      7918.0000         1.4211         1.0853         1.0646        12.6071       119.8590       294.9800       119.8590        69.5005         0.4371         2.3122 
      7918.2500         1.4261         1.0866         1.0648        12.5728       119.6530       294.5200       119.6530        69.0883         0.4309         2.3086 
      7918.5000         1.4310         1.0884         1.0652        12.5103       119.4530       292.9800       119.4530        68.9763         0.4241         2.3058 
      7918.7500         1.4354         1.0904         1.0661        12.4840       119.2880       290.7790       119.2880        69.7347         0.4303         2.3027 
      7919.0000         1.4398         1.0927         1.0675        12.4940       119.1560       287.9140       119.1560        71.3635         0.4496         2.2992 
      7919.2500         1.4432         1.0950         1.0690        12.5246       119.2180       286.0980       119.2180        72.1829         0.4603         2.2979 
      7919.5000         1.4467         1.0971         1.0706        12.5758       119.4770       285.3300       119.4770        72.1929         0.4623         2.2987 
      7919.7500         1.4473         1.0980         1.0713        12.6324       119.8230       285.1060       119.8230        71.7321         0.4718         2.3013 
