~Version Information Block
VERS .                 2.00:  CWLS LOG ASCII STANDARD - VERSION 2.00
WRAP .                   NO:  One line per depth step
~Well Information Block
#MNEM.UNIT        Data Type   Information
#---------- ----------------  -----------
STRT .M            500.0244:  START DEPTH
STOP .M            620.1156:  STOP DEPTH
STEP .M              0.1524:  STEP
NULL .              -999.25:  NULL VALUE
COMP .                     :  COMPANY
WELL .               WELL#2:  WELL
~Curve Information Block
#MNEM.UNIT         API CODE   Curve Description
#---------- ----------------  -----------------
DEPTH.M                    :  Measured Depth
CAL  .IN            UNKNOWN:  CAL:EXTERNAL:rC:NONE:v1
DRHO .G/C3          UNKNOWN:  ZCOR:EXTERNAL:rC:NONE:v1
DT   .US/F          UNKNOWN:  DT::rC:NONE:v1
DTS  .US/F          UNKNOWN:  DTS:EXTERNAL:rC:NONE:v1
GR   .GAPI          UNKNOWN:  GR:EXTERNAL:rC:NONE:v1
NPHI .V/V           UNKNOWN:  NPHI_NORM:v0
RHOB .G/C3          UNKNOWN:  Z3EN:EXTERNAL:rC:NONE:v1
RT   .OHMM          UNKNOWN:  M3RX:EXTERNAL:rC:NONE:v1
VP   .FT/S                 :  Output Velocity
~Parameter Information Block
#MNEM.UNIT            Value   Description
#---------- ----------------  -----------
ELEV_TYPE.                   KB:  ELEV TYPE
LAT  .             100.8026:  LATITUDE
LON  .             100.4617:  LONGITUDE
~Other Information Block
~A        DEPTH            CAL           DRHO             DT            DTS             GR           NPHI           RHOB             RT             VP
       500.0244       12.4110      0.033000      167.1940      592.6990       89.3750      0.486700        2.0780        0.9700     5981.0757
       500.1768       12.4010      0.026000      167.0960      591.2420       88.3790      0.505000        2.0740        0.9710     5984.5840
       500.3292       12.3850      0.019000      166.2600      590.0190       87.5710      0.527200        2.0700        0.9700     6014.6758
       500.4816       12.3750      0.016000      166.0750      588.0480       87.2610      0.524300        2.0700        0.9690     6021.3760
       500.6340       12.3710      0.016000      166.0310      586.3850       87.3650      0.519500        2.0710        0.9690     6022.9712
       500.7864       12.3710      0.022000      166.6680      587.0980       88.2110      0.531000        2.0740        0.9720     5999.9521
       500.9388       12.3740      0.027000      166.8720      587.3380       89.1500      0.547400        2.0750        0.9800     5992.6172
       501.0912       12.3760      0.024000      167.1050      588.9270       89.2220      0.545500        2.0730        0.9850     5984.2617
       501.2436       12.3770      0.018000      167.2470      591.2020       88.4130      0.532000        2.0680        0.9840     5979.1807
       501.3960       12.3780      0.015000      166.8130      593.8200       87.8790      0.531000        2.0660        0.9760     5994.7363
       501.5484       12.3770      0.015000      166.7900      593.6520       87.7660      0.535800        2.0680        0.9680     5995.5635
       501.7008       12.3720      0.017000      167.2050      595.6370       87.9420      0.526200        2.0710        0.9610     5980.6821
       501.8532       12.3690      0.017000      166.6760      594.6680       88.8560      0.510800        2.0730        0.9540     5999.6641
       502.0056       12.3680      0.016000      166.2860      593.7030       89.7460      0.512700        2.0720        0.9500     6013.7354
       502.1580       12.3690      0.014000      166.8370      594.8210       89.8200      0.532000        2.0710        0.9520     5993.8740
       502.3104       12.3700      0.013000      166.3520      594.8390       89.3520      0.547400        2.0750        0.9620     6011.3491
       502.4628       12.3680      0.015000      166.2380      594.3850       88.3410      0.536800        2.0810        0.9760     6015.4717
       502.6152       12.3670      0.017000      164.4360      594.2930       86.6950      0.523300        2.0830        0.9910     6081.3931
       502.7676       12.3730      0.020000      163.7710      594.3660       85.5330      0.535800        2.0840        1.0030     6106.0874
       502.9200       12.3800      0.023000      165.2260      593.8160       85.3440      0.554100        2.0860        1.0100     6052.3164
       503.0724       12.3840      0.025000      164.7700      594.8290       85.4450      0.536800        2.0880        1.0130     6069.0659
       503.2248       12.3810      0.022000      164.7110      590.9090       85.1160      0.501200        2.0850        1.0120     6071.2397
       503.3772       12.3770      0.016000      164.9460      585.3140       84.4040      0.489600        2.0800        1.0090     6062.5903
       503.5296       12.3730      0.013000      164.5320      581.5610       84.3940      0.510800        2.0770        1.0090     6077.8452
       503.6820       12.3700      0.014000      163.6010      576.8360       85.4470      0.545500        2.0790        1.0120     6112.4321
       503.8344       12.3700      0.018000      162.9430      576.7260       86.3300      0.569600        2.0850        1.0130     6137.1157
       503.9868       12.3730      0.021000      162.7120      571.8250       86.7190      0.566700        2.0900        1.0150     6145.8281
       504.1392       12.3740      0.020000      162.2650      569.8440       87.3190      0.541600        2.0920        1.0220     6162.7583
       504.2916       12.3750      0.016000      161.7640      566.5800       87.2600      0.519500        2.0880        1.0340     6181.8447
       504.4440       12.3760      0.010000      161.1810      561.8580       85.5640      0.508900        2.0840        1.0470     6204.2051
       504.5964       12.3720      0.008000      160.5560      555.9170       83.8740      0.493400        2.0830        1.0610     6228.3564
       504.7488       12.3640      0.012000      159.7630      550.5930       83.2730      0.472300        2.0880        1.0790     6259.2715
       504.9012       12.3620      0.018000      159.1110      542.9900       83.5880      0.470300        2.0960        1.1000     6284.9209
       505.0536       12.3650      0.022000      158.8650      534.8120       84.2020      0.488600        2.1010        1.1140     6294.6523
       505.2060       12.3700      0.020000      158.0640      526.4600       85.1610      0.505000        2.0990        1.1140     6326.5513
       505.3584       12.3730      0.017000      159.2840      516.6660       86.2690      0.506000        2.0980        1.1080     6278.0947
       505.5108       12.3720      0.017000      158.7090      509.1430       86.8820      0.493400        2.1000        1.1060     6300.8398
       505.6632       12.3720      0.019000      159.0720      502.6130       85.6360      0.489600        2.1010        1.1070     6286.4614
       505.8156       12.3740      0.017000      158.7360      502.0180       83.7550      0.498300        2.1000        1.1070     6299.7686
       505.9680       12.3740      0.017000      158.3870      497.5160       83.1160      0.497300        2.1020        1.1040     6313.6499
       506.1204       12.3720      0.021000      157.6840      496.8810       83.6690      0.486700        2.1050        1.1040     6341.7974
       506.2728       12.3740      0.017000      157.6950      493.9910       83.9920      0.494400        2.1060        1.1150     6341.3550
       506.4252       12.3770      0.012000      156.9090      493.3480       84.2180      0.510800        2.1040        1.1390     6373.1211
       506.5776       12.3790      0.009000      156.5590      492.3730       85.2770      0.500200        2.1010        1.1730     6387.3682
       506.7300       12.3780      0.009000      155.6330      491.5550       86.0780      0.478000        2.0990        1.2060     6425.3726
       506.8824       12.3750      0.014000      155.5830      491.5970       85.3020      0.475100        2.1020        1.2220     6427.4380
       507.0348       12.3730      0.021000      155.1170      490.5510       83.7200      0.487700        2.1070        1.2210     6446.7466
       507.1872       12.3710      0.021000      155.0360      492.3420       83.0240      0.488600        2.1090        1.2200     6450.1152
       507.3396       12.3690      0.018000      155.0430      494.4100       82.8130      0.468400        2.1100        1.2260     6449.8237
       507.4920       12.3720      0.019000      155.9490      492.3800       82.8800      0.448200        2.1120        1.2310     6412.3525
       507.6444       12.3750      0.017000      156.4010      498.5500       83.6290      0.459700        2.1100        1.2220     6393.8208
       507.7968       12.3740      0.011000      158.4330      501.9970       84.4390      0.499200        2.1000        1.1980     6311.8164
       507.9492       12.3700      0.009000      159.7880      504.8050       84.0560      0.525200        2.0890        1.1600     6258.2925
       508.1016       12.3690      0.014000      160.6960      504.6920       83.1430      0.521400        2.0840        1.1120     6222.9302
       508.2540       12.3710      0.019000      161.2580      500.2320       82.9890      0.504000        2.0850        1.0700     6201.2427
       508.4064       12.3720      0.019000      160.9470      491.4230       83.1420      0.479000        2.0840        1.0470     6213.2251
       508.5588       12.3740      0.016000      160.6340      481.7930       83.0430      0.454900        2.0830        1.0440     6225.3320
