~Version Information Block
VERS .                 2.00:  CWLS LOG ASCII STANDARD - VERSION 2.00
WRAP .                   NO:  One line per depth step
~Well Information Block
#MNEM.UNIT        Data Type   Information
#---------- ----------------  -----------
STRT .F                7800:  START DEPTH
STOP .F                8368:  STOP DEPTH
STEP .F                0.25:  STEP
NULL .              -999.25:  NULL VALUE
WELL .                 TEST:  WELL
~Curve Information Block
#MNEM.UNIT         API CODE   Curve Description
#---------- ----------------  -----------------
DEPTH.F                    :  
AT10 .OHMM                 :  Loaded
AT30 .OHMM                 :  Loaded
AT90 .OHMM                 :  Loaded
CALI .IN                   :  Loaded
DTCO .US/F                 :  Filled log.
DTSM .US/F                 :  Loaded
DT_ED.US/F                 :  Edited log.
GR   .GAPI                 :  
NPHI .V/V                  :  Loaded
RHOB .G/C3                 :  Loaded
~Other Information Block
~A        DEPTH           AT10           AT30           AT90           CALI           DTCO           DTSM          DT_ED             GR           NPHI           RHOB 
# ...
      7836.0000         3.9177         2.5689         2.0289        12.6890       123.4430       283.9620       123.4430        45.9530         0.4588         2.1023 
      7836.2500         3.3342         2.3354         1.9189        12.6754       124.1600       283.4510       124.1600        47.9899         0.4376         2.0947 
      7836.5000         2.7507         2.0661         1.7692        12.6714       124.9040       283.0330       124.9040        53.2295         0.4210         2.0989 
      7836.7500         2.3442         1.8206         1.6149        12.6428       124.2080       282.5010       124.2080        57.3588         0.4081         2.1230 
      7837.0000         1.9377         1.5991         1.4561        12.5898       122.0700       281.8560       122.0700        60.3778         0.3989         2.1671 
      7837.2500         1.7617         1.4342         1.3403        12.5300       119.7400       279.2610       119.7400        64.0406         0.3903         2.2100 
      7837.5000         1.5857         1.3259         1.2673        12.4634       117.2180       274.7180       117.2180        68.3473         0.3824         2.2518 
      7837.7500         1.5665         1.2652         1.2398        12.4097       114.5880       272.1870       114.5880        71.2003         0.3825         2.2911 
      7838.0000         1.5473         1.2520         1.2575        12.3689       111.8480       271.6670       111.8480        72.5998         0.3905         2.3277 
      7838.2500         1.6073         1.2620         1.2895        12.3689       109.8140       268.3330       109.8140        72.6320         0.3977         2.3514 
      7838.5000         1.6674         1.2950         1.3359        12.4097       108.4850       262.1860       108.4850        71.2969         0.4041         2.3618 
      7838.7500         1.7367         1.3257         1.3625        12.4636       107.7090       259.0120       107.7090        70.6609         0.4155         2.3677 
      7839.0000         1.8060         1.3539         1.3695        12.5308       107.4870       258.8120       107.4870        70.7241         0.4318         2.3690 
      7839.2500         1.8543         1.3729         1.3680        12.5784       107.2650       258.8720       107.2650        70.6804         0.4322         2.3663 
      7839.5000         1.9027         1.3826         1.3581        12.6064       107.0420       259.1900       107.0420        70.5298         0.4166         2.3598 
      7839.7500         1.9278         1.3867         1.3553        12.6262       106.9060       259.3770       106.9060        71.6843         0.4059         2.3532 
      7840.0000         1.9529         1.3850         1.3595        12.6378       106.8560       259.4300       106.8560        74.1441         0.3998         2.3467 
      7840.2500         1.9505         1.3776         1.3592        12.6541       107.1560       260.2380       107.1560        74.7292         0.3952         2.3414 
      7840.5000         1.9481         1.3643         1.3541        12.6751       107.8020       261.8020       107.8020        73.4398         0.3919         2.3372 
      7840.7500         1.9152         1.3435         1.3354        12.7121       108.2510       263.0860       108.2510        72.4339         0.3934         2.3361 
      7841.0000         1.8823         1.3152         1.3029        12.7652       108.5050       264.0910       108.5050        71.7114         0.3997         2.3380 
      7841.2500         1.8118         1.2780         1.2646        12.7856       109.0960       266.0910       109.0960        71.0811         0.4170         2.3411 
      7841.5000         1.7412         1.2319         1.2205        12.7733       110.0240       269.0840       110.0240        70.5431         0.4454         2.3453 
      7841.7500         1.6572         1.1833         1.1777        12.7740       111.0900       271.6910       111.0900        71.4277         0.4743         2.3442 
      7842.0000         1.5732         1.1322         1.1363        12.7876       112.2910       273.9110       112.2910        73.7348         0.5038         2.3379 
      7842.2500         1.5344         1.0940         1.1040        12.7957       113.3990       273.7900       113.3990        74.8763         0.5308         2.3288 
      7842.5000         1.4955         1.0686         1.0810        12.7985       114.4130       271.3280       114.4130        74.8521         0.5552         2.3169 
      7842.7500         1.5307         1.0644         1.0757        12.8018       115.3830       267.8100       115.3830        74.1642         0.5514         2.3086 
      7843.0000         1.5659         1.0812         1.0883        12.8060       116.3110       263.2360       116.3110        72.8126         0.5194         2.3038 
      7843.2500         1.6602         1.1162         1.1196        12.8120       116.9130       260.5430       116.9130        72.5936         0.4831         2.3045 
      7843.5000         1.7545         1.1692         1.1695        12.8202       117.1900       259.7310       117.1900        73.5074         0.4427         2.3109 
      7843.7500         1.8660         1.2307         1.2258        12.8205       116.2790       258.2270       116.2790        72.8063         0.4149         2.3181 
      7844.0000         1.9776         1.3007         1.2886        12.8131       114.1770       256.0310       114.1770        70.4903         0.3997         2.3261 
      7844.2500         2.0633         1.3651         1.3392        12.7981       112.2820       253.8970       112.2820        69.1924         0.3883         2.3345 
      7844.5000         2.1490         1.4240         1.3777        12.7757       110.5920       251.8270       110.5920        68.9126         0.3805         2.3435 
      7844.7500         2.1864         1.4657         1.3989        12.7305       108.5940       250.3670       108.5940        69.3246         0.3703         2.3480 
      7845.0000         2.2237         1.4903         1.4030        12.6625       106.2880       249.5180       106.2880        70.4287         0.3577         2.3480 
      7845.2500         2.2151         1.4971         1.3979        12.5979       104.7320       247.2880       104.7320        70.5247         0.3466         2.3497 
      7845.5000         2.2065         1.4862         1.3836        12.5368       103.9250       243.6780       103.9250        69.6125         0.3372         2.3531 
      7845.7500         2.1704         1.4665         1.3671        12.5035       103.5450       240.7810       103.5450        68.7001         0.3405         2.3558 
      7846.0000         2.1342         1.4382         1.3483        12.4981       103.5930       238.5970       103.5930        67.7876         0.3567         2.3579 
      7846.2500         2.0837         1.4094         1.3297        12.4946       103.9390       237.7770       103.9390        67.0005         0.3745         2.3613 
      7846.5000         2.0332         1.3801         1.3114        12.4933       104.5830       238.3230       104.5830        66.3387         0.3940         2.3662 
      7846.7500         1.9725         1.3522         1.2939        12.5179       105.0660       238.6850       105.0660        66.3268         0.4131         2.3679 
      7847.0000         1.9118         1.3259         1.2773        12.5684       105.3870       238.8630       105.3870        66.9650         0.4318         2.3663 
      7847.2500         1.8509         1.3011         1.2619        12.6065       106.1360       239.0390       106.1360        67.8734         0.4350         2.3639 
      7847.5000         1.7901         1.2779         1.2479        12.6320       107.3130       239.2150       107.3130        69.0520         0.4228         2.3605 
      7847.7500         1.7495         1.2602         1.2386        12.6441       108.5060       240.2110       108.5060        69.0650         0.4157         2.3561 
