~Version Information Block
VERS .                 2.00:  CWLS LOG ASCII STANDARD - VERSION 2.00
WRAP .                  YES:  Multiple lines per depth step
~Well Information Block
#MNEM.UNIT        Data Type   Information
#---------- ----------------  -----------
STRT .F                3000:  START DEPTH
STOP .F                3120:  STOP DEPTH
STEP .F                 0.5:  STEP
NULL .              -999.25:  NULL VALUE
COMP .            Ewing Oil:  COMPANY
WELL .         Sue Ellen #4:  WELL
FLD  .      SouthFork Ranch:  FIELD
LOC  .                Plano:  LOCATION
CNTY .               Collin:  COUNTY
STAT .                Texas:  STATE
CTRY .                   US:  COUNTRY
API  .           1234512345:  API NUMBER
SRVC .  Unified Development:  SERVICE COMPANY
DATE .            1/11/1988:  LOG DATE
~Curve Information Block
#MNEM.UNIT         API CODE   Curve Description
#---------- ----------------  -----------------
DEPTH.F                    :  Depth
AO10 .OHMM                 :  ShalRes    NA
AO20 .OHMM                 :  ShalRes    NA
AO30 .OHMM                 :  MedRes     NA
AO60 .OHMM                 :  MedRes     NA
AO90 .OHMM                 :  XDeepRes   NA
AT10 .OHMM                 :  ShalRes    NA
AT20 .OHMM                 :  ShalRes    NA
AT30 .OHMM                 :  MedRes     NA
AT60 .OHMM                 :  MedRes     NA
AT90 .OHMM                 :  XDeepRes   NA
C_POR.%                    :  
C_RHOB.G/C3                 :  
C_RHOG.G/C3                 :  
C_SW .%                    :  
DT   .US/F                 :  Sonic
DT1R .US/F                 :  ShearSonic NA
DT2R .US/F                 :  ShearSonic NA
DT4P .US/F                 :  Sonic      NA
DT4S .US/F                 :  ShearSonic NA
DTCO .US/F                 :  Sonic      NA
NPHI .V/V                  :  Neutron    NA
NPOR .V/V                  :  Neutron    NA
PEFZ .B/E                  :  PEF        HRDD                              :NA
PHIT_311 .DEC              :  PhiT
RDEEP.OHMM                 :  XDeepRes   NA
RHO8 .G/C3                 :  Density    NA
RHOB .G/C3                 :  Density
RHOZ .G/C3                 :  Density    NA
SP   .MV                   :  SP         NA
SW_311.DEC                 :  Sw   
TEMP .F                    :  Temp
~Parameter Information Block
#MNEM.UNIT            Value   Description
#---------- ----------------  -----------
JUNK .                 0.28:  rifle range
RW   .OHMM             0.04:  Resistivity of Water
LATI .            34/34/4.4:  Latitude {DEG/MIN/SEC}
LONG .         -102/20/44.4:  Longitude {DEG/MIN/SEC}
B_JUNK.                   2:  B Factor
A_JUNK.                   2:  Saturation Speed
WELL_NAME.          well #4:  Well Name
~Other Information Block
~Ascii Log Data
# ...
         3081.0
       15.4768       13.4833       13.9305       14.2289       13.9286
       11.4954       10.8130       11.6654       11.9642       11.9685
     -999.2500     -999.2500     -999.2500     -999.2500       76.7421
      146.2800      147.3030       76.7421      148.0990       76.7421
      0.177100      0.154500        3.2253      0.068782       11.9685
        2.6348        2.6348        2.6454     -202.1880        0.9397
      160.0000
         3081.5
       10.6641       10.3477       11.0521       11.1208       10.9220
       10.8196       10.3048       10.9875       11.5393       11.2725
     -999.2500     -999.2500     -999.2500     -999.2500       76.7286
      145.8020      145.1250       76.7286      145.2040       76.7286
      0.183000      0.172300        3.1667      0.068747       11.2725
        2.6597        2.6597        2.6418     -202.3120        0.9688
      160.0000
         3082.0
        9.4292        8.9728        9.4589        9.7061        9.5495
       10.3149        9.7508       10.2316       10.7243       10.4378
     -999.2500     -999.2500     -999.2500     -999.2500       77.2703
      147.8390      146.5050       77.2703      146.8400       77.2703
      0.193700      0.208000        3.1814      0.070121       10.4378
        2.6302        2.6302        2.6393     -202.5620        0.9870
      160.0000
         3082.5
       10.4202        9.6462       10.1909       10.5403       10.3658
       10.3958        9.6304       10.1796       10.6429       10.4322
     -999.2500     -999.2500     -999.2500     -999.2500       76.8308
      148.2820      147.3930       76.8308      147.4160       76.8308
      0.193600      0.183400        3.2706      0.069007       10.4322
        2.6318        2.6318        2.6421     -202.2500        1.0000
      160.0000
         3083.0
       10.6603        9.7380       10.2616       10.7881       10.6108
       10.5062        9.8657       10.3288       10.6320       10.5078
     -999.2500     -999.2500     -999.2500     -999.2500       78.8530
      147.1600      147.4460       78.8530      147.0570       78.8530
      0.199900      0.180900        3.3762      0.074097       10.5078
        2.6578        2.6578        2.6636     -202.8120        0.9309
      160.0000
         3083.5
       11.3845       10.3471       10.7355       11.0256       10.8465
       10.6088        9.8866       10.2837       10.5155       10.4143
     -999.2500     -999.2500     -999.2500     -999.2500       78.4678
      149.5080      147.3560       78.4678      148.4710       78.4678
      0.201400      0.206500        3.4486      0.073135       10.4143
        2.7382        2.7382        2.6899     -202.5000        0.9474
      160.0000
         3084.0
        9.9190        9.2489        9.6331        9.7961        9.6527
       10.1163        9.6366       10.0259       10.1723       10.1152
     -999.2500     -999.2500     -999.2500     -999.2500       79.0141
      149.3390      147.9040       79.0141      148.9940       79.0141
      0.198900      0.207800        3.4553      0.074499       10.1152
        2.7073        2.7073        2.6972     -203.2500        0.9437
      160.0000
         3084.5
        9.7327        9.4565        9.5123        9.5180        9.3854
        9.6959        9.4102        9.7242        9.8692        9.8119
     -999.2500     -999.2500     -999.2500     -999.2500       78.1913
      153.2850      148.7620       78.1913      149.3710       78.1913
      0.192500      0.175500        3.3772      0.072442        9.8119
        2.6785        2.6785        2.6834     -202.8750        0.9854
      160.0000
         3085.0
        9.4491        9.1744        9.5322        9.6510        9.5150
        9.5090        9.1537        9.4198        9.5123        9.4612
     -999.2500     -999.2500     -999.2500     -999.2500       79.2365
      152.4950      150.5900       79.2365      150.2570       79.2365
      0.202800      0.187500        3.2939      0.075053        9.4612
        2.6572        2.6572        2.6617     -203.0000        0.9686
      160.0000
         3085.5
        9.4321        9.1949        9.3702        9.3979        9.2696
        9.6466        9.1589        9.3866        9.5546        9.4893
     -999.2500     -999.2500     -999.2500     -999.2500       77.2876
      149.0530      148.5130       77.2876      145.4830       77.2876
      0.214700      0.215500        3.1905      0.070164        9.4893
        2.6649        2.6649        2.6628     -203.4380        1.0000
      160.0000
         3086.0
       10.0024        9.4700        9.5098        9.9763        9.8287
       10.1992        9.5057        9.7387        9.8350        9.8126
     -999.2500     -999.2500     -999.2500     -999.2500       76.4062
      147.5610      146.0420       76.4062      140.7750       76.4062
      0.214700      0.210000        3.1195      0.067927        9.8126
        2.6828        2.6828        2.6685     -203.7500        1.0000
      160.0000
         3086.5
       11.6259       10.1370       10.5949       10.8503       10.6765
       11.6079       10.6056       10.8928       11.0582       10.8867
     -999.2500     -999.2500     -999.2500     -999.2500       73.4794
      142.3090      142.0440       73.4794      139.2330       73.4794
      0.188700      0.201900        3.0358      0.060410       10.8867
        2.6793        2.6793        2.6800     -203.8750        1.0000
      160.0000
         3087.0
       14.8874       13.1179       13.2979       13.5919       13.3260
       13.6807       12.9511       13.3569       13.4901       13.1062
     -999.2500     -999.2500     -999.2500     -999.2500       73.1803
      139.5150      138.4620       73.1803      135.0860       73.1803
      0.158900      0.143900        2.9798      0.059636       13.1062
        2.6806        2.6806        2.6806     -204.6250        1.0000
      160.0000
         3087.5
       18.1176       17.5840       18.7882       18.5476       18.2092
       15.3785       14.2715       15.1313       15.4781       14.8392
     -999.2500     -999.2500     -999.2500     -999.2500       72.0560
      138.2930      137.9930       72.0560      136.7500       72.0560
      0.144200      0.119100        2.9564      0.056721       14.8392
        2.6729        2.6729        2.6744     -203.6250        1.0000
      160.0000
         3088.0
       13.6621       12.5534       13.1504       13.4265       13.1448
       13.8309       13.2038       13.8389       14.2236       13.7050
     -999.2500     -999.2500     -999.2500     -999.2500       71.0924
      137.2590      137.8100       71.0924      134.2260       71.0924
      0.149000      0.142100        2.9401      0.054219       13.7050
        2.6597        2.6597        2.6705     -204.6250        1.0000
      160.0000
         3088.5
       12.3381       11.8656       12.3327       12.5263       12.2751
       13.3585       12.5472       13.0719       13.5112       13.0335
     -999.2500     -999.2500     -999.2500     -999.2500       71.0735
      137.1480      137.0460       71.0735      133.2320       71.0735
      0.158100      0.165000        2.9447      0.054170       13.0335
        2.6740        2.6740        2.6663     -205.0000        1.0000
      160.0000
         3089.0
       13.8772       12.6503       12.9617       13.3890       13.1264
       13.9230       12.8441       13.4670       14.3641       13.6079
     -999.2500     -999.2500     -999.2500     -999.2500       72.8610
      137.0690      136.2850       72.8610      133.7300       72.8610
      0.165700      0.168900        2.9480      0.058809       13.6079
        2.6596        2.6596        2.6657     -204.5620        1.0000
      160.0000
         3089.5
       14.4271       13.2263       13.7815       14.8447       14.5359
       14.3634       13.1621       14.0235       14.3844       14.1181
     -999.2500     -999.2500     -999.2500     -999.2500       73.5336
      136.5560      135.9750       73.5336      134.5320       73.5336
      0.158200      0.147000        2.9705      0.060550       14.1181
        2.6594        2.6594        2.6608     -205.3750        0.9828
      160.0000
