~Version Information Block
VERS .                 2.00:  CWLS LOG ASCII STANDARD - VERSION 2.00
WRAP .                   NO:  One line per depth step
~Well Information Block
#MNEM.UNIT        Data Type   Information
#---------- ----------------  -----------
STRT .F                7800:  START DEPTH
STOP .F                8368:  STOP DEPTH
STEP .F                0.25:  STEP
NULL .              -999.25:  NULL VALUE
WELL .                 TEST:  WELL
~Curve Information Block
#MNEM.UNIT         API CODE   Curve Description
#---------- ----------------  -----------------
DEPTH.F                    :  
AT10 .OHMM                 :  Loaded
AT30 .OHMM                 :  Loaded
AT90 .OHMM                 :  Loaded
CALI .IN                   :  Loaded
DTCO .US/F                 :  Filled log.
DTSM .US/F                 :  Loaded
DT_ED.US/F                 :  Edited log.
GR   .GAPI                 :  
NPHI .V/V                  :  Loaded
RHOB .G/C3                 :  Loaded
~Other Information Block
~A        DEPTH           AT10           AT30           AT90           CALI           DTCO           DTSM          DT_ED             GR           NPHI           RHOB 
# ...
      7872.0000         1.4864         1.1512         1.1334        12.8018       120.9810       291.8920       120.9810        71.9381         0.4758         2.3167 
      7872.2500         1.4799         1.1483         1.1304        12.7835       121.2880       292.5490       121.2880        70.9053         0.4760         2.3120 
      7872.5000         1.4733         1.1452         1.1266        12.7527       121.6930       293.0830       121.6930        70.1761         0.4864         2.3068 
      7872.7500         1.4716         1.1426         1.1228        12.7396       122.0660       293.4050       122.0660        70.2235         0.4904         2.3043 
      7873.0000         1.4698         1.1406         1.1189        12.7444       122.4060       293.5130       122.4060        71.0475         0.4880         2.3044 
      7873.2500         1.4719         1.1393         1.1163        12.7572       122.5990       293.6090       122.5990        71.7535         0.4884         2.3064 
      7873.5000         1.4739         1.1388         1.1149        12.7784       122.6450       293.6900       122.6450        72.3415         0.4915         2.3102 
      7873.7500         1.4780         1.1396         1.1159        12.8148       122.5360       293.8190       122.5360        72.8573         0.4898         2.3139 
      7874.0000         1.4821         1.1416         1.1191        12.8664       122.2750       293.9960       122.2750        73.3009         0.4833         2.3173 
      7874.2500         1.4859         1.1445         1.1234        12.9172       122.1040       294.2320       122.1040        73.1077         0.4726         2.3191 
      7874.5000         1.4896         1.1481         1.1288        12.9668       122.0220       294.5280       122.0220        72.2775         0.4578         2.3192 
      7874.7500         1.4883         1.1501         1.1325        13.0049       122.0220       294.6350       122.0220        71.7449         0.4488         2.3185 
      7875.0000         1.4870         1.1503         1.1345        13.0313       122.1040       294.5550       122.1040        71.5099         0.4455         2.3172 
      7875.2500         1.4792         1.1477         1.1333        13.0517       122.2050       294.3460       122.2050        70.8025         0.4510         2.3162 
      7875.5000         1.4715         1.1422         1.1290        13.0661       122.3270       294.0080       122.3270        69.6228         0.4653         2.3157 
      7875.7500         1.4621         1.1359         1.1235        13.0613       122.3830       293.6940       122.3830        68.8217         0.4635         2.3156 
      7876.0000         1.4527         1.1286         1.1166        13.0375       122.3740       293.4060       122.3740        68.3992         0.4455         2.3161 
      7876.2500         1.4480         1.1233         1.1112        13.0109       122.3590       293.2190       122.3590        69.5592         0.4326         2.3181 
      7876.5000         1.4433         1.1199         1.1071        12.9817       122.3380       293.1320       122.3380        72.3015         0.4250         2.3215 
      7876.7500         1.4453         1.1190         1.1049        12.9549       122.3490       293.1140       122.3490        73.3011         0.4194         2.3217 
      7877.0000         1.4472         1.1206         1.1046        12.9305       122.3930       293.1650       122.3930        72.5579         0.4159         2.3188 
      7877.2500         1.4514         1.1226         1.1047        12.9042       122.2530       293.2590       122.2530        71.9163         0.4250         2.3157 
      7877.5000         1.4556         1.1251         1.1052        12.8764       121.9300       293.3960       121.9300        71.3763         0.4468         2.3126 
      7877.7500         1.4562         1.1261         1.1048        12.8696       121.6660       292.8440       121.6660        70.8468         0.4650         2.3099 
      7878.0000         1.4567         1.1256         1.1035        12.8839       121.4630       291.6030       121.4630        70.3279         0.4796         2.3076 
      7878.2500         1.4527         1.1236         1.1019        12.9053       121.3760       290.9430       121.3760        69.2619         0.4895         2.3053 
      7878.5000         1.4487         1.1202         1.0999        12.9338       121.4040       290.8630       121.4040        67.6489         0.4948         2.3032 
      7878.7500         1.4447         1.1174         1.0992        12.9545       121.4600       290.6980       121.4600        67.5278         0.5082         2.2996 
      7879.0000         1.4407         1.1152         1.0999        12.9674       121.5440       290.4480       121.5440        68.8985         0.5297         2.2948 
      7879.2500         1.4402         1.1146         1.1018        12.9973       121.5490       290.2970       121.5490        69.2610         0.5488         2.2935 
      7879.5000         1.4397         1.1157         1.1050        13.0443       121.4770       290.2470       121.4770        68.6156         0.5655         2.2959 
      7879.7500         1.4426         1.1176         1.1080        13.0600       121.4370       290.3150       121.4370        68.1680         0.5636         2.2965 
      7880.0000         1.4454         1.1203         1.1107        13.0443       121.4300       290.5000       121.4300        67.9184         0.5430         2.2954 
      7880.2500         1.4499         1.1233         1.1126        13.0143       121.3690       290.8310       121.3690        68.3811         0.5189         2.2975 
      7880.5000         1.4543         1.1267         1.1136        12.9701       121.2530       291.3090       121.2530        69.5560         0.4914         2.3027 
      7880.7500         1.4586         1.1299         1.1141        12.9394       121.1420       292.2680       121.1420        69.9044         0.4715         2.3054 
      7881.0000         1.4629         1.1330         1.1140        12.9219       121.0360       293.7100       121.0360        69.4262         0.4594         2.3056 
      7881.2500         1.4652         1.1351         1.1133        12.9113       120.8950       293.8510       120.8950        68.9933         0.4504         2.3088 
      7881.5000         1.4676         1.1360         1.1120        12.9077       120.7190       292.6900       120.7190        68.6058         0.4446         2.3152 
      7881.7500         1.4664         1.1352         1.1101        12.9205       120.6410       291.8500       120.6410        68.6040         0.4430         2.3192 
      7882.0000         1.4652         1.1328         1.1078        12.9497       120.6600       291.3300       120.6600        68.9881         0.4455         2.3208 
      7882.2500         1.4600         1.1293         1.1056        12.9695       120.7910       290.9240       120.7910        69.4309         0.4508         2.3237 
      7882.5000         1.4549         1.1247         1.1034        12.9797       121.0330       290.6330       121.0330        69.9324         0.4587         2.3279 
      7882.7500         1.4485         1.1208         1.1020        12.9878       121.1280       290.0490       121.1280        69.4543         0.4831         2.3293 
      7883.0000         1.4422         1.1176         1.1014        12.9940       121.0800       289.1730       121.0800        67.9965         0.5240         2.3276 
      7883.2500         1.4365         1.1156         1.1016        12.9913       120.9750       288.0430       120.9750        67.2072         0.5481         2.3225 
      7883.5000         1.4308         1.1148         1.1023        12.9797       120.8120       286.6590       120.8120        67.0863         0.5554         2.3139 
      7883.7500         1.4247         1.1141         1.1030        12.9558       120.7590       285.7570       120.7590        68.1496         0.5493         2.3084 
