~Version Information Block
VERS .                 2.00:  CWLS LOG ASCII STANDARD - VERSION 2.00
WRAP .                   NO:  One line per depth step
~Well Information Block
#MNEM.UNIT        Data Type   Information
#---------- ----------------  -----------
STRT .M            500.0244:  START DEPTH
STOP .M            620.1156:  STOP DEPTH
STEP .M              0.1524:  STEP
NULL .              -999.25:  NULL VALUE
COMP .                     :  COMPANY
WELL .               WELL#2:  WELL
~Curve Information Block
#MNEM.UNIT         API CODE   Curve Description
#---------- ----------------  -----------------
DEPTH.M                    :  Measured Depth
CAL  .IN            UNKNOWN:  CAL:EXTERNAL:rC:NONE:v1
DRHO .G/C3          UNKNOWN:  ZCOR:EXTERNAL:rC:NONE:v1
DT   .US/F          UNKNOWN:  DT::rC:NONE:v1
DTS  .US/F          UNKNOWN:  DTS:EXTERNAL:rC:NONE:v1
GR   .GAPI          UNKNOWN:  GR:EXTERNAL:rC:NONE:v1
NPHI .V/V           UNKNOWN:  NPHI_NORM:v0
RHOB .G/C3          UNKNOWN:  Z3EN:EXTERNAL:rC:NONE:v1
RT   .OHMM          UNKNOWN:  M3RX:EXTERNAL:rC:NONE:v1
VP   .FT/S                 :  Output Velocity
~Parameter Information Block
#MNEM.UNIT            Value   Description
#---------- ----------------  -----------
ELEV_TYPE.                   KB:  ELEV TYPE
LAT  .             100.8026:  LATITUDE
LON  .             100.4617:  LONGITUDE
~Other Information Block
~A        DEPTH            CAL           DRHO             DT            DTS             GR           NPHI           RHOB             RT             VP
# ...
       578.2056       12.3740      0.018000      143.3440      363.2740       69.7700      0.434700        2.0610        1.0810     6976.2251
       578.3580       12.3760      0.017000      143.2260      362.9060       68.1690      0.426000        2.0490        1.0810     6981.9727
       578.5104       12.3780      0.021000      141.7240      361.6960       64.9200      0.433700        2.0380        1.0740     7055.9678
       578.6628       12.3770      0.026000      142.7710      361.6900       62.4460      0.457800        2.0300        1.0640     7004.2236
       578.8152       12.3760      0.025000      142.6260      358.8710       61.2630      0.480000        2.0280        1.0600     7011.3442
       578.9676       12.3770      0.028000      141.7060      359.2690       61.5180      0.485700        2.0380        1.0650     7056.8647
       579.1200       12.3780      0.031000      142.4220      359.5090       63.6090      0.474200        2.0560        1.0750     7021.3872
       579.2724       12.3740      0.025000      142.4040      358.2760       66.3050      0.449100        2.0730        1.0860     7022.2744
       579.4248       12.3710      0.016000      142.8840      357.7290       67.8320      0.428900        2.0820        1.0950     6998.6841
       579.5772       12.3710      0.015000      142.7930      359.8290       68.1730      0.423100        2.0820        1.0990     7003.1445
       579.7296       12.3750      0.020000      142.7760      359.8180       68.0070      0.425000        2.0780        1.0990     7003.9780
       579.8820       12.3750      0.027000      143.0160      358.5680       67.6680      0.429900        2.0790        1.1010     6992.2241
       580.0344       12.3720      0.026000      141.6840      356.9350       67.6390      0.438500        2.0830        1.1150     7057.9595
       580.1868       12.3680      0.015000      140.6650      355.1630       67.5910      0.446200        2.0790        1.1440     7109.0894
       580.3392       12.3640      0.008000      140.1510      355.1150       66.4600      0.445300        2.0610        1.1690     7135.1611
       580.4916       12.3630      0.013000      139.7590      354.5970       64.7240      0.429900        2.0370        1.1620     7155.1743
       580.6440       12.3650      0.020000      138.5160      353.4370       63.7410      0.413500        2.0220        1.1290     7219.3823
       580.7964       12.3680      0.023000      138.1770      351.5670       63.3060      0.404800        2.0270        1.1140     7237.0942
       580.9488       12.3690      0.024000      137.4450      350.6290       62.7020      0.405800        2.0460        1.1410     7275.6372
       581.1012       12.3670      0.029000      136.9030      349.4650       62.6910      0.420200        2.0640        1.1990     7304.4419
       581.2536       12.3650      0.031000      136.1050      347.3020       63.4290      0.442400        2.0670        1.2590     7347.2690
       581.4060       12.3670      0.027000      136.3950      346.1630       63.6020      0.451100        2.0580        1.2920     7331.6470
       581.5584       12.3700      0.021000      136.2430      345.7100       62.5760      0.439500        2.0500        1.2940     7339.8267
       581.7108       12.3700      0.019000      135.1700      344.7490       61.1660      0.430800        2.0490        1.2930     7398.0913
       581.8632       12.3710      0.020000      134.7180      344.8030       60.5690      0.436600        2.0540        1.3040     7422.9131
       582.0156       12.3750      0.022000      133.9520      343.0480       60.6890      0.439500        2.0640        1.3220     7465.3608
       582.1680       12.3790      0.024000      133.3500      342.8340       60.8220      0.447200        2.0780        1.3440     7499.0625
       582.3204       12.3790      0.024000      133.4260      342.5260       61.3360      0.465500        2.0890        1.3680     7494.7915
       582.4728       12.3790      0.019000      132.5330      341.4530       62.8500      0.476100        2.0960        1.3910     7545.2905
       582.6252       12.3770      0.015000      133.2140      341.8880       63.8890      0.461700        2.0990        1.4080     7506.7183
       582.7776       12.3760      0.015000      132.9400      341.5840       63.9510      0.442400        2.0960        1.4120     7522.1904
       582.9300       12.3770      0.015000      134.0350      340.4990       63.7620      0.437600        2.0860        1.3980     7460.7378
       583.0824       12.3790      0.017000      135.1920      342.4880       62.9820      0.443300        2.0760        1.3680     7396.8872
       583.2348       12.3780      0.018000      135.0330      343.6840       62.3200      0.446200        2.0700        1.3330     7405.5967
       583.3872       12.3740      0.025000      135.9210      344.5630       63.3400      0.444300        2.0780        1.3100     7357.2144
       583.5396       12.3710      0.039000      136.0810      345.6090       65.0320      0.439500        2.1020        1.3140     7348.5649
       583.6920       12.3710      0.046000      136.7750      343.0330       66.1570      0.436600        2.1300        1.3450     7311.2778
       583.8444       12.3710      0.036000      136.6140      340.9170       67.2770      0.441400        2.1440        1.3850     7319.8940
       583.9968       12.3700      0.023000      136.2760      340.1780       67.9340      0.439500        2.1410        1.4110     7338.0493
       584.1492       12.3700      0.021000      136.5350      338.3630       67.3250      0.427000        2.1270        1.4130     7324.1289
       584.3016       12.3690      0.025000      136.7920      339.2970       66.3340      0.416400        2.1110        1.3890     7310.3687
       584.4540       12.3680      0.027000      137.5150      337.7640       65.5340      0.415400        2.0990        1.3440     7271.9341
       584.6064       12.3700      0.028000      138.0740      339.8240       64.9920      0.420200        2.0960        1.2940     7242.4927
       584.7588       12.3750      0.028000      140.4600      342.3380       65.2300      0.440500        2.1000        1.2570     7119.4644
       584.9112       12.3770      0.026000      140.6330      344.4950       65.5500      0.459700        2.1030        1.2390     7110.7070
       585.0636       12.3750      0.025000      140.7470      346.0360       65.1260      0.460700        2.1060        1.2300     7104.9473
       585.2160       12.3730      0.028000      141.1240      347.2890       64.6840      0.445300        2.1090        1.2210     7085.9673
       585.3684       12.3720      0.031000      140.7880      347.8870       65.3100      0.432700        2.1120        1.2080     7102.8784
       585.5208       12.3730      0.032000      140.5790      347.4950       65.8060      0.435600        2.1150        1.1980     7113.4385
       585.6732       12.3740      0.032000      139.4830      347.1160       65.3630      0.442400        2.1180        1.2070     7169.3325
       585.8256       12.3740      0.032000      139.7810      346.8030       64.9400      0.432700        2.1180        1.2380     7154.0479
       585.9780       12.3720      0.030000      137.9730      344.7660       64.5770      0.419300        2.1090        1.2690     7247.7944
       586.1304       12.3690      0.026000      138.1110      344.5280       63.6690      0.417300        2.0920        1.2710     7240.5532
       586.2828       12.3680      0.022000      138.9940      344.1660       62.8300      0.425000        2.0720        1.2390     7194.5552
       586.4352       12.3670      0.020000      141.2620      345.5080       62.7540      0.431800        2.0520        1.1930     7079.0449
       586.5876       12.3640      0.016000      140.7200      345.4930       62.6520      0.432700        2.0320        1.1450     7106.3105
       586.7400       12.3610      0.014000      140.5800      348.2850       61.5900      0.429900        2.0150        1.1020     7113.3872
