~Version Information Block
VERS .                 2.00:  CWLS LOG ASCII STANDARD - VERSION 2.00
WRAP .                  YES:  Multiple lines per depth step
~Well Information Block
#MNEM.UNIT        Data Type   Information
#---------- ----------------  -----------
STRT .F                3000:  START DEPTH
STOP .F                3120:  STOP DEPTH
STEP .F                 0.5:  STEP
NULL .              -999.25:  NULL VALUE
COMP .            Ewing Oil:  COMPANY
WELL .         Sue Ellen #4:  WELL
FLD  .      SouthFork Ranch:  FIELD
LOC  .                Plano:  LOCATION
CNTY .               Collin:  COUNTY
STAT .                Texas:  STATE
CTRY .                   US:  COUNTRY
API  .           1234512345:  API NUMBER
SRVC .  Unified Development:  SERVICE COMPANY
DATE .            1/11/1988:  LOG DATE
~Curve Information Block
#MNEM.UNIT         API CODE   Curve Description
#---------- ----------------  -----------------
DEPTH.F                    :  Depth
AO10 .OHMM                 :  ShalRes    NA
AO20 .OHMM                 :  ShalRes    NA
AO30 .OHMM                 :  MedRes     NA
AO60 .OHMM                 :  MedRes     NA
AO90 .OHMM                 :  XDeepRes   NA
AT10 .OHMM                 :  ShalRes    NA
AT20 .OHMM                 :  ShalRes    NA
AT30 .OHMM                 :  MedRes     NA
AT60 .OHMM                 :  MedRes     NA
AT90 .OHMM                 :  XDeepRes   NA
C_POR.%                    :  
C_RHOB.G/C3                 :  
C_RHOG.G/C3                 :  
C_SW .%                    :  
DT   .US/F                 :  Sonic
DT1R .US/F                 :  ShearSonic NA
DT2R .US/F                 :  ShearSonic NA
DT4P .US/F                 :  Sonic      NA
DT4S .US/F                 :  ShearSonic NA
DTCO .US/F                 :  Sonic      NA
NPHI .V/V                  :  Neutron    NA
NPOR .V/V                  :  Neutron    NA
PEFZ .B/E                  :  PEF        HRDD                              :NA
PHIT_311 .DEC              :  PhiT
RDEEP.OHMM                 :  XDeepRes   NA
RHO8 .G/C3                 :  Density    NA
RHOB .G/C3                 :  Density
RHOZ .G/C3                 :  Density    NA
SP   .MV                   :  SP         NA
SW_311.DEC                 :  Sw   
TEMP .F                    :  Temp
~Parameter Information Block
#MNEM.UNIT            Value   Description
#---------- ----------------  -----------
JUNK .                 0.28:  rifle range
RW   .OHMM             0.04:  Resistivity of Water
LATI .            34/34/4.4:  Latitude {DEG/MIN/SEC}
LONG .         -102/20/44.4:  Longitude {DEG/MIN/SEC}
B_JUNK.                   2:  B Factor
A_JUNK.                   2:  Saturation Speed
WELL_NAME.          well #4:  Well Name
~Other Information Block
~Ascii Log Data
# ...
         3054.0
       13.6852       12.5038       13.4090       13.7281       13.3980
       12.9771       12.3323       13.2636       13.3829       12.8691
     -999.2500     -999.2500     -999.2500     -999.2500       73.2815
      142.8960      140.6960       73.2815      140.1610       73.2815
      0.156300      0.147700        3.0037      0.059898       12.8691
        2.6599        2.6599        2.6599     -202.1250        1.0000
      160.0000
         3054.5
       14.0548       12.2265       12.8058       13.2831       12.9760
       12.1564       11.7268       12.5737       12.8911       12.4265
     -999.2500     -999.2500     -999.2500     -999.2500       74.4451
      141.5980      142.2900       74.4451      144.5180       74.4451
      0.167600      0.141500        3.0634      0.062903       12.4265
        2.6635        2.6635        2.6634     -201.1880        1.0000
      160.0000
         3055.0
        9.8211       10.5791       10.7856       11.0030       10.7738
       10.6354       10.2131       11.0306       11.3715       11.0150
     -999.2500     -999.2500     -999.2500     -999.2500       75.7538
      145.1580      146.3690       75.7538      148.8750       75.7538
      0.183600      0.183500        3.1326      0.066263       11.0150
        2.6935        2.6935        2.6709     -201.5620        1.0000
      160.0000
         3055.5
        9.2069        8.4654        8.8303        9.0075        8.8463
        9.7167        9.2751        9.8384       10.1340        9.8459
     -999.2500     -999.2500     -999.2500     -999.2500       78.8235
      148.6930      149.1280       78.8235      153.2320       78.8235
      0.196700      0.217100        3.2153      0.074024        9.8459
        2.6722        2.6722        2.6714     -200.9380        0.9627
      160.0000
         3056.0
       10.5531        9.6900       10.1715       10.5090       10.3035
        9.4954        8.9790        9.5616        9.8514        9.6245
     -999.2500     -999.2500     -999.2500     -999.2500       80.0476
      154.6610      155.5340       80.0476      154.8930       80.0476
      0.200200      0.196500        3.2896      0.077060        9.6245
        2.6612        2.6612        2.6659     -200.8120        0.9353
      160.0000
         3056.5
        8.9663        8.3644        8.9089        9.2505        9.0888
        9.0082        8.5847        9.0939        9.3326        9.1350
     -999.2500     -999.2500     -999.2500     -999.2500       80.4051
      156.9200      157.7340       80.4051      156.5540       80.4051
      0.204600      0.208200        3.3360      0.077940        9.1350
        2.6763        2.6763        2.6626     -200.8750        0.9492
      160.0000
         3057.0
        8.9049        8.6754        9.0398        9.4165        9.2471
        8.6234        8.2446        8.6639        8.9756        8.8070
     -999.2500     -999.2500     -999.2500     -999.2500       80.9503
      158.9660      158.9790       80.9503      154.6110       80.9503
      0.220000      0.220600        3.3196      0.079275        8.8070
        2.6492        2.6492        2.6619     -200.8120        0.9505
      160.0000
         3057.5
        7.5799        7.1747        7.3297        7.5871        7.4757
        8.1712        7.8770        8.1324        8.4514        8.2434
     -999.2500     -999.2500     -999.2500     -999.2500       81.3408
      159.7840      158.8500       81.3408      154.7140       81.3408
      0.227300      0.209100        3.2603      0.080226        8.2434
        2.6619        2.6619        2.6622     -200.5620        0.9708
      160.0000
         3058.0
        8.3439        8.1623        8.0735        8.3785        8.2440
        8.2591        7.9932        8.3880        8.6776        8.5300
     -999.2500     -999.2500     -999.2500     -999.2500       81.1161
      159.5210      158.8280       81.1161      154.8170       81.1161
      0.233100      0.227500        3.1983      0.079679        8.5300
        2.6673        2.6673        2.6645     -201.2500        0.9609
      160.0000
         3058.5
        8.6914        8.4298        8.7947        9.1972        9.0345
        8.8673        8.4556        8.8043        9.1240        8.9730
     -999.2500     -999.2500     -999.2500     -999.2500       80.7283
      158.5940      158.2570       80.7283      151.3810       80.7283
      0.215700      0.222500        3.1754      0.078732        8.9730
        2.6584        2.6584        2.6579     -200.1880        0.9481
      160.0000
         3059.0
        9.5339        9.0189        9.5353        9.6793        9.4989
        9.4774        9.0246        9.4147        9.7277        9.5978
     -999.2500     -999.2500     -999.2500     -999.2500       80.5312
      158.5940      158.2570       80.5312      150.4080       80.5312
      0.196700      0.198500        3.1640      0.078250        9.5978
        2.6655        2.6655        2.6580     -201.2500        0.9224
      160.0000
         3059.5
       10.0694        9.4781        9.9535       10.3154       10.1084
        9.6286        9.1493        9.5734        9.8940        9.7124
     -999.2500     -999.2500     -999.2500     -999.2500       80.5616
      157.0640      155.0210       80.5616      152.2920       80.5616
      0.195400      0.170700        3.1897      0.078324        9.7124
        2.6490        2.6490        2.6486     -201.3120        0.9161
      160.0000
         3060.0
        9.0875        8.6179        9.1216        9.5796        9.3989
        9.0867        8.6374        9.1118        9.2963        9.2374
     -999.2500     -999.2500     -999.2500     -999.2500       80.4093
      158.7070      156.3850       80.4093      152.2450       80.4093
      0.199500      0.193600        3.2514      0.077950        9.2374
        2.6484        2.6484        2.6426     -200.8120        0.9438
      160.0000
         3060.5
        8.3255        7.9445        8.4820        8.8869        8.7298
        8.7192        8.2641        8.7431        8.9761        8.8527
     -999.2500     -999.2500     -999.2500     -999.2500       80.5843
      158.3010      157.4290       80.5843      152.1980       80.5843
      0.212700      0.211600        3.3232      0.078380        8.8527
        2.6493        2.6493        2.6348     -201.5000        0.9588
      160.0000
         3061.0
        8.7280        8.2870        8.8059        9.1831        9.0135
        8.7210        8.3060        8.7926        9.0111        8.8599
     -999.2500     -999.2500     -999.2500     -999.2500       80.6419
      158.2730      158.3160       80.6419      152.1500       80.6419
      0.215400      0.211800        3.3674      0.078521        8.8599
        2.6249        2.6249        2.6293     -201.5620        0.9567
      160.0000
         3061.5
        8.8629        8.4738        8.9273        9.2625        9.0894
        8.9199        8.5006        8.9820        9.2589        9.0710
     -999.2500     -999.2500     -999.2500     -999.2500       80.6721
      158.3830      158.0620       80.6721      152.1030       80.6721
      0.217800      0.215600        3.3501      0.078595        9.0710
        2.6263        2.6263        2.6274     -201.4380        0.9446
      160.0000
         3062.0
        8.8315        8.3971        8.9348        9.2210        9.0487
        8.9724        8.4547        8.9934        9.3208        9.0469
     -999.2500     -999.2500     -999.2500     -999.2500       80.5642
      159.1130      158.4510       80.5642      154.3270       80.5642
      0.229100      0.206100        3.3050      0.078330        9.0469
        2.6283        2.6283        2.6243     -201.1880        0.9491
      160.0000
         3062.5
        9.2422        8.5792        9.1379        9.2910        9.1167
        9.1098        8.6322        9.0113        9.3522        9.0570
     -999.2500     -999.2500     -999.2500     -999.2500       80.4531
      158.8810      157.6090       80.4531      151.2220       80.4531
      0.221500      0.216500        3.2550      0.078058        9.0570
        2.6352        2.6352        2.6232     -200.9380        0.9519
      160.0000
