~Version Information Block
VERS .                 2.00:  CWLS LOG ASCII STANDARD - VERSION 2.00
WRAP .                   NO:  One line per depth step
~Well Information Block
#MNEM.UNIT        Data Type   Information
#---------- ----------------  -----------
STRT .F                7800:  START DEPTH
STOP .F                8368:  STOP DEPTH
STEP .F                0.25:  STEP
NULL .              -999.25:  NULL VALUE
WELL .                 TEST:  WELL
~Curve Information Block
#MNEM.UNIT         API CODE   Curve Description
#---------- ----------------  -----------------
DEPTH.F                    :  
AT10 .OHMM                 :  Loaded
AT30 .OHMM                 :  Loaded
AT90 .OHMM                 :  Loaded
CALI .IN                   :  Loaded
DTCO .US/F                 :  Filled log.
DTSM .US/F                 :  Loaded
DT_ED.US/F                 :  Edited log.
GR   .GAPI                 :  
NPHI .V/V                  :  Loaded
RHOB .G/C3                 :  Loaded
~Other Information Block
~A        DEPTH           AT10           AT30           AT90           CALI           DTCO           DTSM          DT_ED             GR           NPHI           RHOB 
# ...
      8280.0000         1.7389         1.1267         1.0750        12.9728       123.2040       291.4480       123.2040        79.2685         0.4831         2.3238 
      8280.2500         1.7324         1.1270         1.0759        12.9725       122.9890       291.5860       122.9890        79.4435         0.4919         2.3254 
      8280.5000         1.7260         1.1297         1.0798        12.9697       122.3380       291.1560       122.3380        79.7121         0.5092         2.3272 
      8280.7500         1.7239         1.1341         1.0854        12.9469       122.1400       290.5910       122.1400        79.5874         0.5158         2.3282 
      8281.0000         1.7218         1.1404         1.0927        12.9042       122.3950       289.8930       122.3950        79.0692         0.5115         2.3285 
      8281.2500         1.7150         1.1460         1.0977        12.8603       122.6200       289.8940       122.6200        78.7132         0.5147         2.3264 
      8281.5000         1.7081         1.1509         1.1005        12.8155       122.8160       290.5960       122.8160        78.5194         0.5254         2.3220 
      8281.7500         1.6967         1.1561         1.1029        12.7825       123.0700       291.4780       123.0700        78.3341         0.5098         2.3162 
      8282.0000         1.6852         1.1616         1.1048        12.7615       123.3840       292.5400       123.3840        78.1572         0.4682         2.3089 
      8282.2500         1.6768         1.1670         1.1092        12.7718       123.5260       293.0340       123.5260        77.9889         0.4459         2.3049 
      8282.5000         1.6684         1.1723         1.1161        12.8132       123.4960       292.9610       123.4960        77.8291         0.4431         2.3043 
      8282.7500         1.6669         1.1761         1.1232        12.8488       123.3260       292.1220       123.3260        78.1149         0.4334         2.3064 
      8283.0000         1.6655         1.1783         1.1305        12.8787       123.0150       290.5200       123.0150        78.8465         0.4169         2.3112 
      8283.2500         1.6748         1.1825         1.1369        12.9107       122.7340       288.6460       122.7340        78.8852         0.4234         2.3181 
      8283.5000         1.6842         1.1886         1.1425        12.9447       122.4840       286.4980       122.4840        78.2312         0.4528         2.3271 
      8283.7500         1.7135         1.2041         1.1543        12.9729       122.1880       284.3340       122.1880        78.1085         0.4761         2.3289 
      8284.0000         1.7428         1.2289         1.1721        12.9952       121.8480       282.1540       121.8480        78.5172         0.4931         2.3236 
      8284.2500         1.7897         1.2621         1.2001        12.9996       121.7080       280.1930       121.7080        78.3315         0.5082         2.3159 
      8284.5000         1.8366         1.3038         1.2383        12.9860       121.7690       278.4530       121.7690        77.5513         0.5213         2.3056 
      8284.7500         1.8649         1.3360         1.2713        12.9755       121.9300       277.4150       121.9300        76.4946         0.5211         2.2997 
      8285.0000         1.8932         1.3588         1.2991        12.9681       122.1930       277.0830       122.1930        75.1611         0.5078         2.2982 
      8285.2500         1.8772         1.3609         1.3040        12.9522       122.2460       277.3290       122.2460        74.1351         0.4920         2.2995 
      8285.5000         1.8612         1.3425         1.2860        12.9277       122.0900       278.1550       122.0900        73.4165         0.4736         2.3036 
      8285.7500         1.8371         1.3201         1.2592        12.8959       122.0720       279.0610       122.0720        73.7784         0.4606         2.3069 
      8286.0000         1.8130         1.2938         1.2235        12.8569       122.1920       280.0470       122.1920        75.2209         0.4530         2.3094 
      8286.2500         1.8162         1.2765         1.1985        12.8515       122.1670       280.5210       122.1670        75.8503         0.4491         2.3089 
      8286.5000         1.8195         1.2682         1.1843        12.8797       121.9990       280.4840       121.9990        75.6667         0.4489         2.3055 
      8286.7500         1.8439         1.2703         1.1831        12.9098       121.5860       280.4540       121.5860        75.8114         0.4536         2.3057 
      8287.0000         1.8683         1.2827         1.1948        12.9420       120.9290       280.4320       120.9290        76.2845         0.4632         2.3096 
      8287.2500         1.8922         1.2970         1.2093        12.9692       120.5930       280.2930       120.5930        76.6223         0.4795         2.3118 
      8287.5000         1.9162         1.3133         1.2268        12.9914       120.5790       280.0390       120.5790        76.8248         0.5026         2.3125 
      8287.7500         1.9318         1.3247         1.2390        13.0120       120.5080       278.9570       120.5080        76.4039         0.5153         2.3084 
      8288.0000         1.9474         1.3315         1.2461        13.0311       120.3820       277.0470       120.3820        75.3594         0.5177         2.2996 
      8288.2500         1.9619         1.3353         1.2499        13.0427       120.2710       274.8790       120.2710        74.3975         0.5117         2.2902 
      8288.5000         1.9764         1.3363         1.2504        13.0468       120.1750       272.4530       120.1750        73.5181         0.4973         2.2801 
      8288.7500         1.9901         1.3381         1.2515        13.0413       120.1920       271.3910       120.1920        73.6613         0.4798         2.2702 
      8289.0000         2.0037         1.3408         1.2534        13.0264       120.3200       271.6890       120.3200        74.8273         0.4592         2.2605 
      8289.2500         2.0028         1.3433         1.2556        12.9993       120.5400       273.0500       120.5400        74.9454         0.4501         2.2549 
      8289.5000         2.0020         1.3455         1.2582        12.9599       120.8540       275.4740       120.8540        74.0159         0.4525         2.2533 
      8289.7500         1.9840         1.3429         1.2576        12.8983       121.1160       277.9470       121.1160        73.3149         0.4627         2.2555 
      8290.0000         1.9660         1.3354         1.2536        12.8144       121.3240       280.4690       121.3240        72.8425         0.4807         2.2615 
      8290.2500         1.9535         1.3236         1.2449        12.7157       121.4460       282.8530       121.4460        72.2519         0.4837         2.2715 
      8290.5000         1.9411         1.3075         1.2315        12.6021       121.4820       285.0960       121.4820        71.5433         0.4718         2.2855 
      8290.7500         1.9554         1.2934         1.2179        12.5434       121.6870       286.4840       121.6870        71.2930         0.4656         2.2974 
      8291.0000         1.9697         1.2814         1.2042        12.5398       122.0580       287.0160       122.0580        71.5012         0.4651         2.3070 
      8291.2500         2.0037         1.2751         1.1950        12.5486       122.3180       287.6410       122.3180        73.8920         0.4714         2.3129 
      8291.5000         2.0376         1.2747         1.1903        12.5700       122.4680       288.3590       122.4680        78.4652         0.4846         2.3150 
      8291.7500         2.0613         1.2752         1.1870        12.5929       122.4560       288.8510       122.4560        80.8624         0.5102         2.3145 
