~Version Information Block
VERS .                 2.00:  CWLS LOG ASCII STANDARD - VERSION 2.00
WRAP .                   NO:  One line per depth step
~Well Information Block
#MNEM.UNIT        Data Type   Information
#---------- ----------------  -----------
STRT .F                7800:  START DEPTH
STOP .F                8368:  STOP DEPTH
STEP .F                0.25:  STEP
NULL .              -999.25:  NULL VALUE
WELL .                 TEST:  WELL
~Curve Information Block
#MNEM.UNIT         API CODE   Curve Description
#---------- ----------------  -----------------
DEPTH.F                    :  
AT10 .OHMM                 :  Loaded
AT30 .OHMM                 :  Loaded
AT90 .OHMM                 :  Loaded
CALI .IN                   :  Loaded
DTCO .US/F                 :  Filled log.
DTSM .US/F                 :  Loaded
DT_ED.US/F                 :  Edited log.
GR   .GAPI                 :  
NPHI .V/V                  :  Loaded
RHOB .G/C3                 :  Loaded
~Other Information Block
~A        DEPTH           AT10           AT30           AT90           CALI           DTCO           DTSM          DT_ED             GR           NPHI           RHOB 
# ...
      8352.0000         1.2825         0.8256         0.8269        12.5949       121.5240       296.0050       121.5240        81.1618         0.4853         2.3359 
      8352.2500         1.3900         0.8715         0.8616        12.6024       121.6140       295.5600       121.6140        80.7836         0.4748         2.3375 
      8352.5000         1.4974         0.9285         0.9048        12.6276       121.6000       295.0270       121.6000        80.5053         0.4609         2.3395 
      8352.7500         1.5832         0.9809         0.9425        12.6531       121.3890       294.7000       121.3890        79.8913         0.4452         2.3434 
      8353.0000         1.6689         1.0287         0.9745        12.6792       120.9810       294.5780       120.9810        78.9413         0.4279         2.3492 
      8353.2500         1.7112         1.0646         0.9981        12.6926       121.0120       294.6360       121.0120        78.6975         0.4285         2.3541 
      8353.5000         1.7536         1.0888         1.0133        12.6932       121.4800       294.8720       121.4800        79.1597         0.4471         2.3580 
      8353.7500         1.7878         1.1091         1.0296        12.6805       121.7230       295.2230       121.7230        79.4718         0.4586         2.3592 
      8354.0000         1.8219         1.1256         1.0470        12.6545       121.7380       295.6870       121.7380        79.6338         0.4631         2.3575 
      8354.2500         1.8609         1.1433         1.0678        12.6364       121.6940       296.0720       121.6940        80.9937         0.4727         2.3505 
      8354.5000         1.8998         1.1623         1.0920        12.6262       121.5910       296.3760       121.5910        83.5517         0.4873         2.3380 
      8354.7500         1.9194         1.1783         1.1111        12.6228       121.5070       296.5520       121.5070        84.2419         0.4950         2.3289 
      8355.0000         1.9390         1.1914         1.1254        12.6263       121.4400       296.5990       121.4400        83.0643         0.4958         2.3230 
      8355.2500         1.9349         1.2007         1.1325        12.6353       121.4980       296.7940       121.4980        82.9732         0.4944         2.3197 
      8355.5000         1.9307         1.2060         1.1324        12.6497       121.6820       297.1360       121.6820        83.9685         0.4908         2.3190 
      8355.7500         1.9255         1.2092         1.1315        12.6760       121.9540       297.4140       121.9540        84.4389         0.4977         2.3200 
      8356.0000         1.9203         1.2103         1.1300        12.7141       122.3140       297.6300       122.3140        84.3844         0.5151         2.3227 
      8356.2500         1.9225         1.2108         1.1304        12.7535       122.5010       297.6980       122.5010        84.5576         0.5160         2.3252 
      8356.5000         1.9248         1.2106         1.1328        12.7943       122.5140       297.6220       122.5140        84.9586         0.5005         2.3276 
      8356.7500         1.9304         1.2118         1.1354        12.8198       122.1600       297.5570       122.1600        84.0184         0.4944         2.3289 
      8357.0000         1.9359         1.2145         1.1382        12.8300       121.4380       297.5070       121.4380        81.7370         0.4977         2.3292 
      8357.2500         1.9416         1.2175         1.1396        12.8271       121.0860       297.5400       121.0860        80.3880         0.4942         2.3272 
      8357.5000         1.9474         1.2209         1.1396        12.8111       121.1040       297.6580       121.1040        79.9716         0.4839         2.3230 
      8357.7500         1.9514         1.2238         1.1392        12.7631       121.1780       297.6930       121.1780        79.2766         0.4853         2.3182 
      8358.0000         1.9553         1.2263         1.1383        12.6832       121.3090       297.6480       121.3090        78.3029         0.4984         2.3131 
      8358.2500         1.9561         1.2280         1.1379        12.6432       121.6040       297.9060       121.6040        79.7005         0.5098         2.3099 
      8358.5000         1.9569         1.2289         1.1380        12.6429       122.0620       298.4640       122.0620        83.4696         0.5195         2.3087 
      8358.7500         1.9524         1.2286         1.1378        12.6374       122.2920       298.7240       122.2920        85.3007         0.5265         2.3081 
      8359.0000         1.9478         1.2270         1.1375        12.6266       122.2920       298.6850       122.2920        85.1939         0.5311         2.3081 
      8359.2500         1.9373         1.2246         1.1367        12.6205       122.1590       298.2700       122.1590        84.5897         0.5279         2.3088 
      8359.5000         1.9269         1.2216         1.1355        12.6191       121.8940       297.4800       121.8940        83.4882         0.5169         2.3103 
      8359.7500         1.9174         1.2198         1.1350        12.6024       121.8870       297.0730       121.8870        83.4142         0.5143         2.3125 
      8360.0000         1.9079         1.2193         1.1353        12.5704       122.1410       297.0490       122.1410        84.3680         0.5199         2.3155 
      8360.2500         1.9056         1.2204         1.1362        12.5493       122.3260       297.0390       122.3260        85.4689         0.5257         2.3198 
      8360.5000         1.9034         1.2230         1.1379        12.5389       122.4460       297.0430       122.4460        86.7171         0.5315         2.3253 
      8360.7500         1.9002         1.2241         1.1379        12.5413       122.5700       297.0790       122.5700        87.1870         0.5374         2.3287 
      8361.0000         1.8970         1.2236         1.1363        12.5562       122.7000       297.1460       122.7000        86.8785         0.5434         2.3301 
      8361.2500         1.8819         1.2193         1.1316        12.5512       122.6730       297.2120       122.6730        86.5611         0.5434         2.3304 
      8361.5000         1.8669         1.2110         1.1237        12.5261       122.4900       297.2780       122.4900        86.2346         0.5372         2.3294 
      8361.7500         1.8485         1.2017         1.1152        12.5179       122.5450       297.4870       122.5450        85.8591         0.5248         2.3241 
      8362.0000         1.8301         1.1913         1.1060        12.5264       122.8390       297.8380       122.8390        85.4344         0.5063         2.3144 
      8362.2500         1.8244         1.1839         1.0994        12.5509       123.2220       298.2580       123.2220        83.8383         0.5001         2.3100 
      8362.5000         1.8188         1.1797         1.0954        12.5914       123.6950       298.7470       123.6950        81.0707         0.5062         2.3108 
      8362.7500         1.8259         1.1787         1.0940        12.6461       124.0920       299.0610       124.0920        79.8047         0.5077         2.3095 
      8363.0000         1.8330         1.1809         1.0955        12.7148       124.4140       299.2020       124.4140        80.0401         0.5045         2.3060 
      8363.2500         1.8390         1.1832         1.0976        12.7754       124.4860       299.3120       124.4860        80.2818         0.5068         2.3048 
      8363.5000         1.8450         1.1856         1.1005        12.8279       124.3060       299.3920       124.3060        80.5297         0.5148         2.3059 
      8363.7500         1.8422         1.1859         1.1022        12.8484       124.1140       299.3000       124.1140        80.6048         0.5190         2.3079 
