~Version Information Block
VERS .                 2.00:  CWLS LOG ASCII STANDARD - VERSION 2.00
WRAP .                   NO:  One line per depth step
~Well Information Block
#MNEM.UNIT        Data Type   Information
#---------- ----------------  -----------
STRT .M            500.0244:  START DEPTH
STOP .M            620.1156:  STOP DEPTH
STEP .M              0.1524:  STEP
NULL .              -999.25:  NULL VALUE
COMP .                     :  COMPANY
WELL .               WELL#2:  WELL
~Curve Information Block
#MNEM.UNIT         API CODE   Curve Description
#---------- ----------------  -----------------
DEPTH.M                    :  Measured Depth
CAL  .IN            UNKNOWN:  CAL:EXTERNAL:rC:NONE:v1
DRHO .G/C3          UNKNOWN:  ZCOR:EXTERNAL:rC:NONE:v1
DT   .US/F          UNKNOWN:  DT::rC:NONE:v1
DTS  .US/F          UNKNOWN:  DTS:EXTERNAL:rC:NONE:v1
GR   .GAPI          UNKNOWN:  GR:EXTERNAL:rC:NONE:v1
NPHI .V/V           UNKNOWN:  NPHI_NORM:v0
RHOB .G/C3          UNKNOWN:  Z3EN:EXTERNAL:rC:NONE:v1
RT   .OHMM          UNKNOWN:  M3RX:EXTERNAL:rC:NONE:v1
VP   .FT/S                 :  Output Velocity
~Parameter Information Block
#MNEM.UNIT            Value   Description
#---------- ----------------  -----------
ELEV_TYPE.                   KB:  ELEV TYPE
LAT  .             100.8026:  LATITUDE
LON  .             100.4617:  LONGITUDE
~Other Information Block
~A        DEPTH            CAL           DRHO             DT            DTS             GR           NPHI           RHOB             RT             VP
# ...
       560.8320       12.3750      0.020000      143.0600      373.4090       77.5650      0.453000        2.0470        1.1760     6990.0742
       560.9844       12.3730      0.023000      143.5440      374.0580       77.8040      0.474200        2.0590        1.1790     6966.5049
       561.1368       12.3680      0.020000      146.0530      376.9240       78.8200      0.483800        2.0680        1.1740     6846.8301
       561.2892       12.3660      0.018000      147.0220      381.2720       80.4920      0.494400        2.0780        1.1670     6801.7031
       561.4416       12.3690      0.021000      149.9480      386.3810       82.4820      0.507900        2.0950        1.1610     6668.9785
       561.5940       12.3740      0.021000      152.9910      395.9470       85.3840      0.498300        2.1100        1.1440     6536.3325
       561.7464       12.3750      0.016000      156.7300      412.2050       89.5060      0.472300        2.1130        1.0990     6380.3994
       561.8988       12.3720      0.013000      158.6260      427.4750       93.0620      0.468400        2.1090        1.0470     6304.1367
       562.0512       12.3710      0.016000      160.2150      427.4750       94.3850      0.479000        2.1090        1.0150     6241.6128
       562.2036       12.3750      0.019000      158.6420      415.1850       93.7340      0.478000        2.1130        1.0100     6303.5010
       562.3560       12.3790      0.019000      153.2310      407.0430       92.0720      0.465500        2.1200        1.0360     6526.0942
       562.5084       12.3800      0.017000      152.1850      400.2520       89.6330      0.444300        2.1240        1.0920     6570.9497
       562.6608       12.3770      0.011000      147.2840      386.5930       85.8130      0.417300        2.1180        1.1710     6789.6040
       562.8132       12.3730      0.008000      144.4700      388.5560       81.0410      0.396100        2.1070        1.2610     6921.8521
       562.9656       12.3720      0.014000      141.4300      375.3580       76.9990      0.396100        2.1020        1.3400     7070.6362
       563.1180       12.3700      0.019000      142.1260      377.3550       75.1020      0.410600        2.1060        1.3850     7036.0098
       563.2704       12.3710      0.016000      143.0820      375.3580       75.8110      0.432700        2.1120        1.3880     6988.9995
       563.4228       12.3750      0.013000      147.0720      396.4610       78.4970      0.459700        2.1200        1.3410     6799.3906
       563.5752       12.3790      0.011000      148.7090      404.2530       82.0590      0.487700        2.1260        1.2390     6724.5425
       563.7276       12.3800      0.011000      152.1330      423.7300       85.8290      0.494400        2.1280        1.1300     6573.1958
       563.8800       12.3780      0.012000      154.9270      470.5700       88.9660      0.480000        2.1290        1.0610     6454.6528
       564.0324       12.3760      0.013000      155.3110      484.3880       91.1910      0.477100        2.1290        1.0340     6438.6938
       564.1848       12.3740      0.014000      157.1280      491.8740       92.6560      0.487700        2.1340        1.0300     6364.2378
       564.3372       12.3760      0.015000      158.1220      504.2460       92.5190      0.496300        2.1430        1.0280     6324.2310
       564.4896       12.3780      0.013000      158.4530      515.0900       91.3870      0.513700        2.1490        1.0220     6311.0195
       564.6420       12.3770      0.011000      158.4810      518.7940       91.5040      0.550300        2.1490        1.0090     6309.9048
       564.7944       12.3720      0.011000      159.3070      521.0440       92.4940      0.576300        2.1470        0.9910     6277.1880
       564.9468       12.3730      0.012000      160.4340      524.6070       92.8340      0.582100        2.1470        0.9730     6233.0923
       565.0992       12.3790      0.016000      160.7050      524.6290       93.0670      0.582100        2.1480        0.9560     6222.5815
       565.2516       12.3820      0.020000      160.7570      525.0650       93.9550      0.571500        2.1500        0.9420     6220.5688
       565.4040       12.3800      0.022000      159.9630      525.1440       94.5990      0.543600        2.1490        0.9370     6251.4458
       565.5564       12.3750      0.020000      160.2390      523.5600       94.3660      0.517500        2.1480        0.9440     6240.6782
       565.7088       12.3710      0.020000      159.3200      521.2080       93.3650      0.500200        2.1490        0.9580     6276.6758
       565.8612       12.3690      0.021000      159.2590      501.3320       92.0920      0.484800        2.1510        0.9740     6279.0801
       566.0136       12.3710      0.018000      156.6590      476.9370       90.7570      0.471300        2.1530        0.9900     6383.2910
       566.1660       12.3760      0.012000      155.2880      450.4350       89.3610      0.459700        2.1530        1.0060     6439.6479
       566.3184       12.3790      0.012000      155.1160      448.1190       88.3510      0.452000        2.1540        1.0280     6446.7881
       566.4708       12.3770      0.018000      154.6160      422.3610       87.8940      0.452000        2.1530        1.0540     6467.6362
       566.6232       12.3750      0.022000      153.0140      422.3610       87.9820      0.464500        2.1490        1.0680     6535.3496
       566.7756       12.3770      0.023000      153.2680      422.7140       87.9660      0.476100        2.1450        1.0610     6524.5190
       566.9280       12.3780      0.024000      152.3390      415.9930       87.2010      0.469400        2.1430        1.0570     6564.3071
       567.0804       12.3790      0.023000      151.4070      405.9830       85.7450      0.452000        2.1430        1.0790     6604.7144
       567.2328       12.3790      0.020000      149.1490      405.8220       84.8530      0.440500        2.1430        1.1230     6704.7046
       567.3852       12.3780      0.015000      148.1670      399.2080       85.2440      0.433700        2.1410        1.1660     6749.1406
       567.5376       12.3770      0.012000      147.5410      393.9880       85.0740      0.423100        2.1370        1.1960     6777.7769
       567.6900       12.3770      0.013000      146.6730      390.9360       83.4150      0.416400        2.1350        1.2200     6817.8872
       567.8424       12.3810      0.019000      146.2170      382.9130       81.8770      0.420200        2.1380        1.2380     6839.1504
       567.9948       12.3810      0.024000      146.7550      381.9540       81.7300      0.433700        2.1410        1.2480     6814.0776
       568.1472       12.3790      0.023000      145.6730      381.8660       81.9620      0.453900        2.1400        1.2500     6864.6899
       568.2996       12.3780      0.019000      145.5390      378.7240       81.9990      0.469400        2.1350        1.2490     6871.0103
       568.4520       12.3780      0.018000      146.3880      378.0760       81.9870      0.461700        2.1300        1.2440     6831.1611
       568.6044       12.3790      0.018000      146.2560      377.7520       81.4230      0.436600        2.1270        1.2390     6837.3267
       568.7568       12.3810      0.021000      147.9160      377.7400       80.8380      0.415400        2.1290        1.2330     6760.5938
       568.9092       12.3830      0.026000      148.0450      377.8320       81.2100      0.414400        2.1320        1.2270     6754.7031
       569.0616       12.3820      0.027000      145.5820      376.1730       82.0500      0.433700        2.1300        1.2210     6868.9810
       569.2140       12.3790      0.024000      144.3060      374.6730       81.8480      0.461700        2.1190        1.2120     6929.7188
       569.3664       12.3750      0.018000      143.8090      372.9060       80.1270      0.482800        2.1010        1.1990     6953.6675
