~Version Information Block
VERS .                 2.00:  CWLS LOG ASCII STANDARD - VERSION 2.00
WRAP .                   NO:  One line per depth step
~Well Information Block
#MNEM.UNIT        Data Type   Information
#---------- ----------------  -----------
STRT .M            500.0244:  START DEPTH
STOP .M            620.1156:  STOP DEPTH
STEP .M              0.1524:  STEP
NULL .              -999.25:  NULL VALUE
COMP .                     :  COMPANY
WELL .               WELL#2:  WELL
~Curve Information Block
#MNEM.UNIT         API CODE   Curve Description
#---------- ----------------  -----------------
DEPTH.M                    :  Measured Depth
CAL  .IN            UNKNOWN:  CAL:EXTERNAL:rC:NONE:v1
DRHO .G/C3          UNKNOWN:  ZCOR:EXTERNAL:rC:NONE:v1
DT   .US/F          UNKNOWN:  DT::rC:NONE:v1
DTS  .US/F          UNKNOWN:  DTS:EXTERNAL:rC:NONE:v1
GR   .GAPI          UNKNOWN:  GR:EXTERNAL:rC:NONE:v1
NPHI .V/V           UNKNOWN:  NPHI_NORM:v0
RHOB .G/C3          UNKNOWN:  Z3EN:EXTERNAL:rC:NONE:v1
RT   .OHMM          UNKNOWN:  M3RX:EXTERNAL:rC:NONE:v1
VP   .FT/S                 :  Output Velocity
~Parameter Information Block
#MNEM.UNIT            Value   Description
#---------- ----------------  -----------
ELEV_TYPE.                   KB:  ELEV TYPE
LAT  .             100.8026:  LATITUDE
LON  .             100.4617:  LONGITUDE
~Other Information Block
~A        DEPTH            CAL           DRHO             DT            DTS             GR           NPHI           RHOB             RT             VP
# ...
       517.3980       12.3760      0.018000      157.0370      482.5340       79.9930      0.462600        2.1070        1.0990     6367.9258
       517.5504       12.3780      0.016000      157.1630      479.0200       80.0620      0.474200        2.1010        1.0920     6362.8208
       517.7028       12.3770      0.016000      157.8940      474.7070       80.5820      0.501200        2.0970        1.0870     6333.3628
       517.8552       12.3770      0.019000      158.1550      468.9430       80.1820      0.527200        2.0960        1.0930     6322.9111
       518.0076       12.3780      0.019000      158.2630      461.6720       78.6310      0.548400        2.0960        1.1110     6318.5962
       518.1600       12.3780      0.019000      160.1140      453.4710       77.5250      0.551300        2.1010        1.1350     6245.5503
       518.3124       12.3770      0.019000      157.0360      445.3710       77.8460      0.512700        2.1110        1.1570     6367.9668
       518.4648       12.3740      0.017000      155.5440      438.6260       78.6220      0.472300        2.1190        1.1820     6429.0488
       518.6172       12.3680      0.013000      153.6770      434.3590       78.0800      0.459700        2.1190        1.2150     6507.1543
       518.7696       12.3680      0.011000      152.8070      433.2890       76.0190      0.470300        2.1170        1.2460     6544.2026
       518.9220       12.3730      0.012000      152.4600      435.1110       74.3570      0.489600        2.1170        1.2570     6559.0972
       519.0744       12.3770      0.014000      152.1720      438.5680       74.4160      0.495400        2.1180        1.2400     6571.5112
       519.2268       12.3740      0.015000      152.2750      441.8130       75.7620      0.476100        2.1220        1.2010     6567.0664
       519.3792       12.3700      0.014000      154.7730      443.2900       76.7670      0.454900        2.1290        1.1770     6461.0757
       519.5316       12.3710      0.014000      153.2100      442.1760       76.8160      0.454900        2.1360        1.1950     6526.9888
       519.6840       12.3730      0.014000      151.1970      438.6140       76.3190      0.470300        2.1410        1.2460     6613.8877
       519.8364       12.3750      0.017000      149.0860      433.9870       75.5090      0.483800        2.1450        1.2980     6707.5381
       519.9888       12.3750      0.018000      149.0200      430.1940       75.1730      0.480000        2.1460        1.3320     6710.5083
       520.1412       12.3780      0.012000      151.6670      428.7550       76.0870      0.462600        2.1380        1.3360     6593.3916
       520.2936       12.3810      0.008000      152.4480      429.7760       77.6250      0.453000        2.1250        1.3000     6559.6138
       520.4460       12.3800      0.009000      154.4510      432.3780       79.1110      0.453000        2.1150        1.2470     6474.5449
       520.5984       12.3770      0.014000      154.4310      435.3960       80.1100      0.451100        2.1090        1.2150     6475.3838
       520.7508       12.3760      0.023000      155.0230      438.0710       79.3110      0.454900        2.1110        1.2170     6450.6558
       520.9032       12.3780      0.024000      154.7380      440.0800       77.4190      0.467400        2.1150        1.2380     6462.5366
       521.0556       12.3760      0.013000      152.0130      441.1000       76.8580      0.477100        2.1180        1.2550     6578.3848
       521.2080       12.3710      0.005000      152.5790      441.1850       77.7280      0.487700        2.1230        1.2620     6553.9819
       521.3604       12.3690      0.009000      152.7990      440.2110       78.8150      0.491500        2.1320        1.2630     6544.5454
       521.5128       12.3690      0.016000      153.3390      438.4260       80.2910      0.473200        2.1370        1.2580     6521.4980
       521.6652       12.3690      0.018000      155.2120      435.8660       82.2840      0.455900        2.1350        1.2470     6442.8008
       521.8176       12.3720      0.017000      154.7410      433.0240       83.1580      0.457800        2.1320        1.2340     6462.4116
       521.9700       12.3760      0.015000      153.6340      430.1850       81.9350      0.465500        2.1310        1.2300     6508.9756
       522.1224       12.3780      0.015000      155.2690      427.7600       79.7420      0.466500        2.1340        1.2350     6440.4355
       522.2748       12.3780      0.016000      152.3990      425.6010       77.9760      0.468400        2.1370        1.2440     6561.7227
       522.4272       12.3760      0.019000      152.3580      424.5000       77.1110      0.479000        2.1380        1.2500     6563.4888
       522.5796       12.3700      0.021000      152.4590      421.3590       77.5570      0.489600        2.1380        1.2460     6559.1406
       522.7320       12.3660      0.020000      153.9870      429.3060       78.9770      0.500200        2.1370        1.2280     6494.0547
       522.8844       12.3680      0.016000      155.9380      429.0000       80.5600      0.516600        2.1330        1.2080     6412.8052
       523.0368       12.3690      0.013000      155.8040      428.7060       81.5680      0.524300        2.1290        1.2000     6418.3203
       523.1892       12.3690      0.011000      155.1800      422.8790       81.8990      0.510800        2.1260        1.2100     6444.1299
       523.3416       12.3730      0.015000      154.1650      417.5180       80.9440      0.488600        2.1270        1.2320     6486.5571
       523.4940       12.3780      0.017000      152.4390      412.7220       78.6560      0.468400        2.1290        1.2630     6560.0015
       523.6464       12.3770      0.014000      151.0900      405.5930       76.0810      0.456800        2.1340        1.3050     6618.5718
       523.7988       12.3740      0.011000      147.1570      396.9320       74.4040      0.450100        2.1400        1.3480     6795.4634
       523.9512       12.3730      0.013000      146.3280      396.4880       74.0540      0.445300        2.1450        1.3720     6833.9619
       524.1036       12.3760      0.014000      147.1510      393.3630       75.1090      0.447200        2.1470        1.3790     6795.7402
       524.2560       12.3780      0.016000      145.4090      391.4050       76.2630      0.436600        2.1480        1.3860     6877.1538
       524.4084       12.3750      0.015000      146.8490      389.2610       75.5660      0.404800        2.1470        1.3960     6809.7163
       524.5608       12.3730      0.011000      147.3570      389.1240       73.7290      0.380700        2.1440        1.4000     6786.2402
       524.7132       12.3730      0.010000      146.6620      388.9700       72.7000      0.382600        2.1430        1.3960     6818.3984
       524.8656       12.3740      0.012000      147.6900      389.9130       72.1870      0.404800        2.1430        1.3930     6770.9390
       525.0180       12.3740      0.015000      148.5170      390.0540       71.5330      0.430800        2.1440        1.3910     6733.2358
       525.1704       12.3710      0.016000      147.8610      389.7030       71.2670      0.453900        2.1430        1.3840     6763.1089
       525.3228       12.3660      0.015000      146.8130      388.1980       71.5090      0.477100        2.1370        1.3720     6811.3857
       525.4752       12.3680      0.014000      145.7320      387.8750       71.6480      0.482800        2.1290        1.3580     6861.9111
       525.6276       12.3730      0.017000      145.9490      387.1730       71.6410      0.448200        2.1250        1.3460     6851.7080
       525.7800       12.3740      0.021000      146.3290      386.6640       71.3140      0.406700        2.1290        1.3400     6833.9155
       525.9324       12.3720      0.022000      145.1030      384.9040       70.6870      0.396100        2.1340        1.3440     6891.6562
