~Version Information Block
VERS .                 2.00:  CWLS LOG ASCII STANDARD - VERSION 2.00
WRAP .                   NO:  One line per depth step
~Well Information Block
#MNEM.UNIT        Data Type   Information
#---------- ----------------  -----------
STRT .F                7800:  START DEPTH
STOP .F                8368:  STOP DEPTH
STEP .F                0.25:  STEP
NULL .              -999.25:  NULL VALUE
WELL .                 TEST:  WELL
~Curve Information Block
#MNEM.UNIT         API CODE   Curve Description
#---------- ----------------  -----------------
DEPTH.F                    :  
AT10 .OHMM                 :  Loaded
AT30 .OHMM                 :  Loaded
AT90 .OHMM                 :  Loaded
CALI .IN                   :  Loaded
DTCO .US/F                 :  Filled log.
DTSM .US/F                 :  Loaded
DT_ED.US/F                 :  Edited log.
GR   .GAPI                 :  
NPHI .V/V                  :  Loaded
RHOB .G/C3                 :  Loaded
~Other Information Block
~A        DEPTH           AT10           AT30           AT90           CALI           DTCO           DTSM          DT_ED             GR           NPHI           RHOB 
# ...
      8208.0000         1.7435         1.2153         1.1704        12.7010       125.8140       278.9700       125.8140        77.2421         0.5185         2.2896 
      8208.2500         1.7354         1.2070         1.1555        12.7017       125.7100       281.1120       125.7100        76.7986         0.5206         2.2930 
      8208.5000         1.7273         1.1934         1.1364        12.7199       125.8430       283.2800       125.8430        76.3103         0.5077         2.2974 
      8208.7500         1.7002         1.1746         1.1142        12.7259       125.9510       284.6480       125.9510        75.9693         0.5104         2.2949 
      8209.0000         1.6730         1.1507         1.0887        12.7198       126.0350       285.2170       126.0350        75.7757         0.5286         2.2856 
      8209.2500         1.6501         1.1274         1.0651        12.7171       126.3480       287.6460       126.3480        75.6978         0.5388         2.2780 
      8209.5000         1.6273         1.1048         1.0434        12.7177       126.8880       291.9350       126.8880        75.7356         0.5409         2.2721 
      8209.7500         1.6306         1.0891         1.0285        12.7572       127.6220       294.6210       127.6220        74.1311         0.5413         2.2655 
      8210.0000         1.6338         1.0803         1.0205        12.8355       128.5480       295.7060       128.5480        70.8842         0.5401         2.2581 
      8210.2500         1.6485         1.0763         1.0175        12.9151       129.2120       293.9290       129.2120        69.7104         0.5402         2.2525 
      8210.5000         1.6631         1.0774         1.0194        12.9962       129.6170       289.2920       129.6170        70.6095         0.5416         2.2486 
      8210.7500         1.6549         1.0764         1.0201        13.0343       130.3780       288.0700       130.3780        71.6208         0.5441         2.2413 
      8211.0000         1.6467         1.0733         1.0194        13.0295       131.4930       290.2640       131.4930        72.7444         0.5474         2.2304 
      8211.2500         1.6119         1.0652         1.0144        12.9930       132.2730       293.9040       132.2730        74.3723         0.5471         2.2254 
      8211.5000         1.5771         1.0523         1.0052        12.9248       132.7170       298.9900       132.7170        76.5045         0.5433         2.2261 
      8211.7500         1.5420         1.0381         0.9946        12.8507       132.0430       300.1660       132.0430        77.6754         0.5484         2.2305 
      8212.0000         1.5070         1.0229         0.9825        12.7705       130.2510       297.4340       130.2510        77.8851         0.5625         2.2384 
      8212.2500         1.4915         1.0118         0.9737        12.7038       129.0530       296.3960       129.0530        78.1386         0.5628         2.2508 
      8212.5000         1.4761         1.0051         0.9683        12.6508       128.4490       297.0500       128.4490        78.4360         0.5494         2.2676 
      8212.7500         1.4809         1.0043         0.9683        12.6409       127.8640       297.1450       127.8640        78.5264         0.5385         2.2825 
      8213.0000         1.4857         1.0096         0.9740        12.6744       127.2980       296.6790       127.2980        78.4098         0.5300         2.2956 
      8213.2500         1.4993         1.0183         0.9832        12.7071       126.8030       296.1120       126.8030        77.5840         0.5199         2.3052 
      8213.5000         1.5130         1.0305         0.9962        12.7389       126.3810       295.4460       126.3810        76.0488         0.5084         2.3115 
      8213.7500         1.5266         1.0427         1.0088        12.7511       126.1080       294.3570       126.1080        75.9610         0.5053         2.3146 
      8214.0000         1.5403         1.0550         1.0213        12.7437       125.9860       292.8430       125.9860        77.3206         0.5107         2.3147 
      8214.2500         1.5512         1.0660         1.0313        12.7444       126.0310       291.2380       126.0310        77.8122         0.5195         2.3138 
      8214.5000         1.5622         1.0759         1.0389        12.7532       126.2420       289.5420       126.2420        77.4359         0.5317         2.3117 
      8214.7500         1.5695         1.0849         1.0451        12.7337       126.4220       288.4170       126.4220        76.7523         0.5390         2.3112 
      8215.0000         1.5768         1.0932         1.0498        12.6861       126.5700       287.8650       126.5700        75.7613         0.5413         2.3124 
      8215.2500         1.5810         1.1015         1.0557        12.6470       126.5070       287.5900       126.5070        75.5509         0.5432         2.3109 
      8215.5000         1.5852         1.1100         1.0626        12.6166       126.2320       287.5920       126.2320        76.1212         0.5447         2.3069 
      8215.7500         1.5859         1.1177         1.0707        12.5928       126.1450       287.4960       126.1450        75.8625         0.5501         2.3043 
      8216.0000         1.5866         1.1247         1.0800        12.5756       126.2430       287.2990       126.2430        74.7749         0.5595         2.3030 
      8216.2500         1.5846         1.1299         1.0882        12.5718       126.3140       286.6840       126.3140        73.9513         0.5584         2.3009 
      8216.5000         1.5826         1.1332         1.0952        12.5814       126.3550       285.6500       126.3550        73.3917         0.5468         2.2981 
      8216.7500         1.5837         1.1366         1.1007        12.5882       126.0590       285.0830       126.0590        72.9864         0.5323         2.2989 
      8217.0000         1.5848         1.1399         1.1049        12.5923       125.4240       284.9830       125.4240        72.7354         0.5149         2.3032 
      8217.2500         1.5929         1.1451         1.1098        12.5842       125.3020       286.6580       125.3020        72.7926         0.4974         2.3054 
      8217.5000         1.6010         1.1522         1.1156        12.5641       125.6950       290.1070       125.6950        73.1581         0.4799         2.3054 
      8217.7500         1.6118         1.1585         1.1215        12.5448       125.5750       292.3910       125.5750        73.3301         0.4799         2.3038 
      8218.0000         1.6226         1.1642         1.1275        12.5264       124.9430       293.5090       124.9430        73.3086         0.4973         2.3004 
      8218.2500         1.6299         1.1650         1.1289        12.5174       124.4100       294.6560       124.4100        73.5815         0.5105         2.3001 
      8218.5000         1.6372         1.1610         1.1256        12.5178       123.9760       295.8330       123.9760        74.1485         0.5194         2.3029 
      8218.7500         1.6412         1.1539         1.1177        12.4888       124.3530       299.0760       124.3530        73.7379         0.5280         2.3057 
      8219.0000         1.6453         1.1438         1.1054        12.4301       125.5420       304.3840       125.5420        72.3493         0.5363         2.3087 
      8219.2500         1.6480         1.1356         1.0950        12.3954       126.1470       305.6680       126.1470        72.0681         0.5487         2.3098 
      8219.5000         1.6508         1.1294         1.0863        12.3847       126.1710       302.9280       126.1710        72.8942         0.5653         2.3093 
      8219.7500         1.6465         1.1239         1.0791        12.3813       126.1320       299.8750       126.1320        74.0336         0.5868         2.3073 
