~Version Information Block
VERS .                 2.00:  CWLS LOG ASCII STANDARD - VERSION 2.00
WRAP .                   NO:  One line per depth step
~Well Information Block
#MNEM.UNIT        Data Type   Information
#---------- ----------------  -----------
STRT .M            500.0244:  START DEPTH
STOP .M            620.1156:  STOP DEPTH
STEP .M              0.1524:  STEP
NULL .              -999.25:  NULL VALUE
COMP .                     :  COMPANY
WELL .               WELL#2:  WELL
~Curve Information Block
#MNEM.UNIT         API CODE   Curve Description
#---------- ----------------  -----------------
DEPTH.M                    :  Measured Depth
CAL  .IN            UNKNOWN:  CAL:EXTERNAL:rC:NONE:v1
DRHO .G/C3          UNKNOWN:  ZCOR:EXTERNAL:rC:NONE:v1
DT   .US/F          UNKNOWN:  DT::rC:NONE:v1
DTS  .US/F          UNKNOWN:  DTS:EXTERNAL:rC:NONE:v1
GR   .GAPI          UNKNOWN:  GR:EXTERNAL:rC:NONE:v1
NPHI .V/V           UNKNOWN:  NPHI_NORM:v0
RHOB .G/C3          UNKNOWN:  Z3EN:EXTERNAL:rC:NONE:v1
RT   .OHMM          UNKNOWN:  M3RX:EXTERNAL:rC:NONE:v1
VP   .FT/S                 :  Output Velocity
~Parameter Information Block
#MNEM.UNIT            Value   Description
#---------- ----------------  -----------
ELEV_TYPE.                   KB:  ELEV TYPE
LAT  .             100.8026:  LATITUDE
LON  .             100.4617:  LONGITUDE
~Other Information Block
~A        DEPTH            CAL           DRHO             DT            DTS             GR           NPHI           RHOB             RT             VP
# ...
       543.4584       12.3690      0.016000      165.9240      539.2940       88.6950      0.513700        2.0650        1.0240     6026.8560
       543.6108       12.3720      0.015000      166.8040      541.9310       90.1270      0.527200        2.0630        1.0250     5995.0601
       543.7632       12.3730      0.015000      166.9830      541.9310       90.5650      0.544500        2.0600        1.0430     5988.6333
       543.9156       12.3720      0.016000      167.2000      536.7490       89.6460      0.561900        2.0550        1.0710     5980.8613
       544.0680       12.3720      0.016000      166.4850      531.0540       88.8670      0.586900        2.0510        1.0970     6006.5469
       544.2204       12.3730      0.015000      166.9450      520.8290       89.1370      0.596500        2.0460        1.1090     5989.9966
       544.3728       12.3720      0.015000      166.5360      514.0870       89.2630      0.573400        2.0430        1.1070     6004.7080
       544.5252       12.3670      0.016000      166.5180      511.2240       88.5680      0.543600        2.0430        1.1070     6005.3564
       544.6776       12.3670      0.017000      166.2810      508.3480       88.6070      0.539700        2.0450        1.1180     6013.9160
       544.8300       12.3750      0.015000      165.5430      509.1980       89.3830      0.552200        2.0470        1.1270     6040.7266
       544.9824       12.3810      0.015000      165.6370      511.2480       89.5490      0.554100        2.0500        1.1280     6037.2988
       545.1348       12.3790      0.016000      165.0030      515.4150       89.3180      0.549300        2.0540        1.1260     6060.4956
       545.2872       12.3760      0.016000      165.7000      522.1060       88.6720      0.556100        2.0580        1.1270     6035.0029
       545.4396       12.3740      0.019000      164.9220      522.7130       87.8200      0.561900        2.0620        1.1290     6063.4727
       545.5920       12.3700      0.027000      165.4730      529.2500       87.3700      0.547400        2.0700        1.1280     6043.2817
       545.7444       12.3650      0.028000      165.7600      536.2490       87.9960      0.537800        2.0730        1.1190     6032.8188
       545.8968       12.3630      0.023000      165.3060      541.8350       89.1160      0.546400        2.0700        1.0980     6049.3872
       546.0492       12.3660      0.019000      165.8920      549.3880       89.7140      0.551300        2.0660        1.0700     6028.0181
       546.2016       12.3700      0.018000      166.1760      555.0540       89.2110      0.546400        2.0620        1.0460     6017.7163
       546.3540       12.3700      0.019000      166.0810      562.0270       88.9710      0.547400        2.0600        1.0310     6021.1587
       546.5064       12.3660      0.022000      166.4810      560.2580       89.2470      0.556100        2.0630        1.0250     6006.6914
       546.6588       12.3630      0.023000      167.0690      563.1520       89.1900      0.565700        2.0670        1.0130     5985.5508
       546.8112       12.3660      0.021000      166.5660      566.6020       88.8170      0.565700        2.0700        0.9850     6003.6265
       546.9636       12.3700      0.017000      166.3990      574.5910       88.8130      0.550300        2.0700        0.9520     6009.6514
       547.1160       12.3710      0.014000      166.5970      577.6430       89.0640      0.545500        2.0700        0.9300     6002.5093
       547.2684       12.3710      0.015000      166.7980      579.3200       89.8530      0.559000        2.0700        0.9220     5995.2754
       547.4208       12.3730      0.022000      166.9410      579.7180       90.7360      0.550300        2.0720        0.9210     5990.1406
       547.5732       12.3760      0.031000      167.1540      580.9460       90.7950      0.512700        2.0730        0.9190     5982.5068
       547.7256       12.3740      0.029000      167.2950      582.8660       90.1650      0.494400        2.0720        0.9120     5977.4648
       547.8780       12.3720      0.019000      167.0820      583.0680       89.5730      0.507900        2.0710        0.9000     5985.0850
       548.0304       12.3740      0.014000      167.1730      587.8420       89.7230      0.525200        2.0750        0.8870     5981.8271
       548.1828       12.3760      0.018000      167.2730      591.3440       90.7900      0.541600        2.0820        0.8770     5978.2515
       548.3352       12.3740      0.023000      166.9630      595.4990       91.0890      0.564700        2.0860        0.8730     5989.3511
       548.4876       12.3690      0.025000      166.8410      601.5390       89.8280      0.575300        2.0870        0.8720     5993.7305
       548.6400       12.3670      0.021000      166.7930      603.3440       89.3380      0.565700        2.0860        0.8720     5995.4556
       548.7924       12.3680      0.017000      166.7970      606.0750       90.1160      0.554100        2.0840        0.8740     5995.3120
       548.9448       12.3690      0.015000      166.8360      605.4490       90.5210      0.541600        2.0820        0.8750     5993.9102
       549.0972       12.3690      0.017000      166.6740      607.1190       90.2700      0.536800        2.0830        0.8760     5999.7363
       549.2496       12.3690      0.022000      166.8750      608.2040       90.4000      0.530100        2.0850        0.8760     5992.5093
       549.4020       12.3670      0.026000      166.5770      607.8700       90.5690      0.523300        2.0880        0.8750     6003.2300
       549.5544       12.3650      0.026000      166.6340      607.1580       90.2090      0.534900        2.0880        0.8740     6001.1763
       549.7068       12.3670      0.021000      166.5620      602.6790       89.8580      0.561900        2.0840        0.8720     6003.7705
       549.8592       12.3700      0.020000      167.4190      597.5030       89.9780      0.575300        2.0810        0.8710     5973.0376
       550.0116       12.3710      0.024000      167.4040      592.0750       89.9390      0.572500        2.0850        0.8710     5973.5728
       550.1640       12.3710      0.027000      166.6270      589.2690       89.2720      0.572500        2.0900        0.8680     6001.4282
       550.3164       12.3710      0.024000      166.6930      587.5530       89.1150      0.571500        2.0880        0.8640     5999.0522
       550.4688       12.3680      0.019000      166.6850      582.9430       90.7780      0.558000        2.0830        0.8650     5999.3403
       550.6212       12.3630      0.018000      166.0920      578.7620       92.5550      0.543600        2.0790        0.8770     6020.7598
       550.7736       12.3630      0.019000      166.3310      571.4170       91.6110      0.553200        2.0800        0.9000     6012.1084
       550.9260       12.3700      0.022000      166.2980      566.7520       88.7980      0.567600        2.0820        0.9300     6013.3013
       551.0784       12.3750      0.025000      166.2460      563.4880       87.9460      0.555100        2.0830        0.9550     6015.1821
       551.2308       12.3780      0.026000      166.7260      563.6620       89.8750      0.532000        2.0820        0.9600     5997.8647
       551.3832       12.3810      0.025000      166.7180      567.3250       91.8310      0.524300        2.0800        0.9450     5998.1523
       551.5356       12.3800      0.024000      166.5790      562.8380       92.4420      0.516600        2.0790        0.9190     6003.1577
       551.6880       12.3740      0.025000      167.3070      563.0380       92.4320      0.496300        2.0780        0.8930     5977.0361
       551.8404       12.3690      0.023000      167.2860      574.8830       92.2760      0.484800        2.0760        0.8740     5977.7866
       551.9928       12.3720      0.022000      167.5360      587.3800       91.9430      0.507900        2.0740        0.8610     5968.8667
