~Version Information Block
VERS .                 2.00:  CWLS LOG ASCII STANDARD - VERSION 2.00
WRAP .                   NO:  One line per depth step
~Well Information Block
#MNEM.UNIT        Data Type   Information
#---------- ----------------  -----------
STRT .M            500.0244:  START DEPTH
STOP .M            620.1156:  STOP DEPTH
STEP .M              0.1524:  STEP
NULL .              -999.25:  NULL VALUE
COMP .                     :  COMPANY
WELL .               WELL#2:  WELL
~Curve Information Block
#MNEM.UNIT         API CODE   Curve Description
#---------- ----------------  -----------------
DEPTH.M                    :  Measured Depth
CAL  .IN            UNKNOWN:  CAL:EXTERNAL:rC:NONE:v1
DRHO .G/C3          UNKNOWN:  ZCOR:EXTERNAL:rC:NONE:v1
DT   .US/F          UNKNOWN:  DT::rC:NONE:v1
DTS  .US/F          UNKNOWN:  DTS:EXTERNAL:rC:NONE:v1
GR   .GAPI          UNKNOWN:  GR:EXTERNAL:rC:NONE:v1
NPHI .V/V           UNKNOWN:  NPHI_NORM:v0
RHOB .G/C3          UNKNOWN:  Z3EN:EXTERNAL:rC:NONE:v1
RT   .OHMM          UNKNOWN:  M3RX:EXTERNAL:rC:NONE:v1
VP   .FT/S                 :  Output Velocity
~Parameter Information Block
#MNEM.UNIT            Value   Description
#---------- ----------------  -----------
ELEV_TYPE.                   KB:  ELEV TYPE
LAT  .             100.8026:  LATITUDE
LON  .             100.4617:  LONGITUDE
~Other Information Block
~A        DEPTH            CAL           DRHO             DT            DTS             GR           NPHI           RHOB             RT             VP
# ...
       526.0848       12.3720      0.017000      144.2210      382.8870       70.5490      0.413500        2.1340        1.3510     6933.8032
       526.2372       12.3750      0.014000      144.9260      381.5430       71.1160      0.430800        2.1300        1.3500     6900.0732
       526.3896       12.3770      0.017000      144.4840      382.5480       71.2380      0.428900        2.1270        1.3430     6921.1821
       526.5420       12.3800      0.020000      143.3600      382.4010       71.0600      0.427900        2.1270        1.3390     6975.4463
       526.6944       12.3790      0.020000      143.3400      382.4070       71.4160      0.443300        2.1270        1.3420     6976.4199
       526.8468       12.3760      0.018000      143.2360      384.9810       71.6730      0.459700        2.1290        1.3470     6981.4854
       526.9992       12.3720      0.021000      143.6430      384.4940       70.9810      0.466500        2.1310        1.3460     6961.7036
       527.1516       12.3720      0.027000      145.7450      385.7720       69.6960      0.468400        2.1240        1.3350     6861.2993
       527.3040       12.3760      0.028000      147.4530      389.4430       68.3840      0.466500        2.1070        1.3090     6781.8218
       527.4564       12.3820      0.027000      148.7520      411.2250       68.0860      0.459700        2.0930        1.2660     6722.5986
       527.6088       12.3830      0.026000      152.1070      417.0260       70.2010      0.466500        2.0970        1.2140     6574.3198
       527.7612       12.3810      0.024000      153.1050      430.3770       74.7040      0.480000        2.1150        1.1620     6531.4653
       527.9136       12.3790      0.021000      155.6030      475.5200       79.5910      0.473200        2.1320        1.1200     6426.6113
       528.0660       12.3780      0.019000      156.8670      489.4070       82.2450      0.455900        2.1430        1.0960     6374.8267
       528.2184       12.3760      0.018000      157.5380      498.2510       82.8090      0.462600        2.1450        1.0870     6347.6753
       528.3708       12.3730      0.017000      160.8970      505.8180       83.6520      0.494400        2.1410        1.0760     6215.1562
       528.5232       12.3720      0.017000      161.2190      520.9820       85.2570      0.521400        2.1320        1.0540     6202.7432
       528.6756       12.3690      0.021000      162.1660      527.5490       86.7120      0.539700        2.1230        1.0140     6166.5205
       528.8280       12.3680      0.027000      163.8340      542.8890       87.6510      0.537800        2.1160        0.9720     6103.7393
       528.9804       12.3700      0.030000      166.0080      564.0060       88.0340      0.515600        2.1120        0.9490     6023.8062
       529.1328       12.3720      0.029000      166.6380      577.0800       88.1420      0.500200        2.1080        0.9460     6001.0322
       529.2852       12.3720      0.027000      165.1760      580.4530       87.6680      0.499200        2.1060        0.9530     6054.1484
       529.4376       12.3700      0.026000      163.3250      570.5450       86.6850      0.488600        2.1070        0.9650     6122.7617
       529.5900       12.3670      0.028000      162.3560      570.5450       86.5410      0.480000        2.1090        0.9780     6159.3042
       529.7424       12.3670      0.029000      163.7940      564.4640       87.5440      0.489600        2.1110        0.9880     6105.2295
       529.8948       12.3710      0.029000      161.4470      533.3180       87.3680      0.503100        2.1120        0.9960     6193.9829
       530.0472       12.3750      0.024000      160.2000      508.2990       85.3410      0.504000        2.1080        1.0080     6242.1973
       530.1996       12.3750      0.018000      157.6130      481.8810       82.5170      0.500200        2.0980        1.0380     6344.6538
       530.3520       12.3730      0.017000      153.4340      457.5220       78.9700      0.492500        2.0900        1.0900     6517.4600
       530.5044       12.3700      0.020000      152.3890      436.0850       74.7280      0.480000        2.0860        1.1550     6562.1533
       530.6568       12.3700      0.019000      148.5090      418.4400       71.3810      0.464500        2.0810        1.2010     6733.5986
       530.8092       12.3740      0.017000      147.8490      404.6420       69.4800      0.455900        2.0730        1.2120     6763.6577
       530.9616       12.3750      0.020000      145.6190      394.0050       67.8500      0.460700        2.0640        1.2150     6867.2354
       531.1140       12.3690      0.025000      143.5240      385.3190       65.8260      0.477100        2.0590        1.2380     6967.4756
       531.2664       12.3650      0.030000      141.3980      377.9420       63.9860      0.477100        2.0640        1.2780     7072.2358
       531.4188       12.3690      0.032000      139.6790      369.5780       63.4120      0.455900        2.0780        1.3250     7159.2725
       531.5712       12.3730      0.029000      139.4450      365.6830       64.1660      0.430800        2.0920        1.3800     7171.2856
       531.7236       12.3720      0.026000      139.4060      362.9380       64.7790      0.420200        2.0990        1.4340     7173.2920
       531.8760       12.3690      0.027000      138.5350      359.4020       64.5180      0.427900        2.1030        1.4650     7218.3921
       532.0284       12.3720      0.029000      138.1260      359.2250       64.4500      0.456800        2.1050        1.4690     7239.7661
       532.1808       12.3750      0.032000      138.0870      359.4200       64.8870      0.484800        2.1070        1.4630     7241.8110
       532.3332       12.3720      0.034000      138.8200      360.4510       64.6420      0.485700        2.1090        1.4560     7203.5728
       532.4856       12.3680      0.031000      138.6030      361.0420       63.1770      0.472300        2.1070        1.4500     7214.8511
       532.6380       12.3670      0.025000      137.6980      362.2810       62.2240      0.461700        2.1010        1.4430     7262.2695
       532.7904       12.3670      0.023000      138.6240      362.4260       63.0220      0.447200        2.0970        1.4340     7213.7583
       532.9428       12.3650      0.025000      137.5070      363.0700       64.2250      0.430800        2.0980        1.4270     7272.3569
       533.0952       12.3630      0.028000      138.1590      363.3950       64.4670      0.422100        2.0990        1.4230     7238.0376
       533.2476       12.3660      0.027000      138.2020      363.4530       64.5040      0.422100        2.0990        1.4210     7235.7856
       533.4000       12.3730      0.024000      137.9170      363.1740       65.0320      0.426000        2.0980        1.4200     7250.7373
       533.5524       12.3790      0.021000      137.6490      363.2140       65.2260      0.430800        2.0980        1.4190     7264.8545
       533.7048       12.3780      0.023000      137.3440      362.9230       64.6070      0.428900        2.1010        1.4210     7280.9883
       533.8572       12.3720      0.029000      136.8480      362.9870       63.8810      0.424100        2.1050        1.4240     7307.3770
       534.0096       12.3690      0.032000      137.3690      363.1450       63.8090      0.430800        2.1080        1.4280     7279.6626
       534.1620       12.3700      0.032000      137.1730      363.3670       64.0230      0.437600        2.1070        1.4310     7290.0640
       534.3144       12.3740      0.031000      137.2560      363.5390       64.0560      0.427900        2.1050        1.4340     7285.6562
       534.4668       12.3770      0.030000      137.6790      363.5210       64.2430      0.415400        2.1030        1.4350     7263.2720
       534.6192       12.3750      0.028000      137.5280      363.4320       64.4060      0.413500        2.1030        1.4330     7271.2466
