~Version Information Block
VERS .                 2.00:  CWLS LOG ASCII STANDARD - VERSION 2.00
WRAP .                   NO:  One line per depth step
~Well Information Block
#MNEM.UNIT        Data Type   Information
#---------- ----------------  -----------
STRT .M            500.0244:  START DEPTH
STOP .M            620.1156:  STOP DEPTH
STEP .M              0.1524:  STEP
NULL .              -999.25:  NULL VALUE
COMP .                     :  COMPANY
WELL .               WELL#2:  WELL
~Curve Information Block
#MNEM.UNIT         API CODE   Curve Description
#---------- ----------------  -----------------
DEPTH.M                    :  Measured Depth
CAL  .IN            UNKNOWN:  CAL:EXTERNAL:rC:NONE:v1
DRHO .G/C3          UNKNOWN:  ZCOR:EXTERNAL:rC:NONE:v1
DT   .US/F          UNKNOWN:  DT::rC:NONE:v1
DTS  .US/F          UNKNOWN:  DTS:EXTERNAL:rC:NONE:v1
GR   .GAPI          UNKNOWN:  GR:EXTERNAL:rC:NONE:v1
NPHI .V/V           UNKNOWN:  NPHI_NORM:v0
RHOB .G/C3          UNKNOWN:  Z3EN:EXTERNAL:rC:NONE:v1
RT   .OHMM          UNKNOWN:  M3RX:EXTERNAL:rC:NONE:v1
VP   .FT/S                 :  Output Velocity
~Parameter Information Block
#MNEM.UNIT            Value   Description
#---------- ----------------  -----------
ELEV_TYPE.                   KB:  ELEV TYPE
LAT  .             100.8026:  LATITUDE
LON  .             100.4617:  LONGITUDE
~Other Information Block
~A        DEPTH            CAL           DRHO             DT            DTS             GR           NPHI           RHOB             RT             VP
# ...
       552.1452       12.3770      0.023000      167.8560      594.4540       91.9040      0.543600        2.0750        0.8540     5957.4873
       552.2976       12.3790      0.023000      167.8320      602.6000       91.6850      0.550300        2.0750        0.8490     5958.3394
       552.4500       12.3790      0.021000      167.5750      607.7650       91.0620      0.537800        2.0750        0.8470     5967.4775
       552.6024       12.3800      0.021000      167.8360      602.8790       91.0100      0.536800        2.0760        0.8470     5958.1973
       552.7548       12.3790      0.022000      167.9420      597.4960       91.4870      0.546400        2.0770        0.8510     5954.4365
       552.9072       12.3780      0.022000      168.2670      593.7450       91.6430      0.545500        2.0770        0.8610     5942.9360
       553.0596       12.3760      0.023000      168.1580      590.4950       91.3970      0.540700        2.0780        0.8680     5946.7881
       553.2120       12.3760      0.024000      167.4250      597.6040       91.5940      0.535800        2.0780        0.8700     5972.8237
       553.3644       12.3770      0.021000      168.0080      594.9530       91.9870      0.533900        2.0750        0.8700     5952.0977
       553.5168       12.3790      0.018000      168.0070      598.3710       92.0020      0.539700        2.0710        0.8700     5952.1328
       553.6692       12.3800      0.017000      167.7850      601.1990       91.3650      0.542600        2.0680        0.8700     5960.0083
       553.8216       12.3760      0.019000      167.4490      603.6830       91.0150      0.532000        2.0680        0.8700     5971.9673
       553.9740       12.3710      0.019000      166.7750      604.3410       91.3160      0.538700        2.0700        0.8700     5996.1025
       554.1264       12.3720      0.019000      167.7560      601.8480       91.3310      0.569600        2.0710        0.8690     5961.0386
       554.2788       12.3750      0.019000      166.5500      596.5490       90.7450      0.581100        2.0720        0.8680     6004.2026
       554.4312       12.3740      0.022000      165.9880      592.2970       90.5690      0.562800        2.0740        0.8670     6024.5317
       554.5836       12.3700      0.028000      166.3370      587.7330       91.5790      0.552200        2.0790        0.8680     6011.8911
       554.7360       12.3690      0.032000      165.7820      572.2690       92.7650      0.546400        2.0860        0.8740     6032.0181
       554.8884       12.3710      0.034000      163.4560      543.2570       92.5330      0.519500        2.0950        0.8900     6117.8545
       555.0408       12.3720      0.037000      160.3700      529.8080       89.6000      0.475100        2.1090        0.9270     6235.5806
       555.1932       12.3730      0.038000      158.6130      523.9900       84.9620      0.439500        2.1240        1.0040     6304.6533
       555.3456       12.3760      0.032000      157.9130      507.6580       81.2370      0.417300        2.1340        1.1350     6332.6011
       555.4980       12.3810      0.026000      156.0550      469.7140       79.3690      0.406700        2.1310        1.2810     6407.9976
       555.6504       12.3830      0.022000      156.6380      424.9220       76.8990      0.400000        2.1190        1.3830     6384.1470
       555.8028       12.3790      0.019000      155.7110      388.9180       72.3090      0.383600        2.1100        1.4750     6422.1538
       555.9552       12.3760      0.013000      155.2470      370.7620       67.6880      0.362400        2.1090        1.5890     6441.3486
       556.1076       12.3780      0.008000      152.2590      361.3970       65.4400      0.358600        2.1050        1.6590     6567.7563
       556.2600       12.3790      0.007000      149.6440      356.5410       65.5220      0.381700        2.0890        1.6270     6682.5269
       556.4124       12.3780      0.011000      147.3570      353.6320       66.4250      0.419300        2.0630        1.5100     6786.2402
       556.5648       12.3780      0.017000      142.0900      352.5890       66.5790      0.443300        2.0380        1.3630     7037.7930
       556.7172       12.3790      0.021000      142.3830      352.0900       65.6320      0.444300        2.0190        1.2390     7023.3105
       556.8696       12.3780      0.021000      140.5010      354.4030       64.3130      0.441400        2.0040        1.1600     7117.3867
       557.0220       12.3730      0.023000      141.1070      356.4540       63.3510      0.439500        1.9940        1.1100     7086.8208
       557.1744       12.3690      0.026000      140.7030      357.8850       62.8340      0.434700        1.9860        1.0660     7107.1689
       557.3268       12.3700      0.023000      140.8420      356.6240       62.4680      0.430800        1.9780        1.0300     7100.1548
       557.4792       12.3760      0.016000      142.0260      358.2510       62.0100      0.438500        1.9720        1.0120     7040.9644
       557.6316       12.3810      0.015000      140.4110      359.6090       62.1880      0.454900        1.9740        1.0100     7121.9492
       557.7840       12.3810      0.017000      139.0090      360.7720       63.5900      0.464500        1.9830        1.0160     7193.7788
       557.9364       12.3750      0.020000      138.5610      360.6940       65.8220      0.453900        1.9930        1.0310     7217.0376
       558.0888       12.3690      0.022000      137.1130      361.6660       67.6510      0.432700        2.0010        1.0540     7293.2539
       558.2412       12.3680      0.021000      136.9540      363.6550       68.1240      0.416400        2.0070        1.0790     7301.7222
       558.3936       12.3700      0.017000      136.7310      362.3590       68.1520      0.413500        2.0120        1.0990     7313.6304
       558.5460       12.3720      0.014000      136.5860      361.8950       68.8440      0.424100        2.0150        1.1130     7321.3945
       558.6984       12.3740      0.015000      137.3040      360.9520       69.4080      0.442400        2.0160        1.1190     7283.1089
       558.8508       12.3750      0.016000      137.0710      359.8520       68.9960      0.454900        2.0150        1.1190     7295.4893
       559.0032       12.3760      0.020000      137.5750      359.8850       68.6710      0.457800        2.0150        1.1160     7268.7627
       559.1556       12.3760      0.025000      137.7420      359.4690       69.6120      0.460700        2.0210        1.1160     7259.9497
       559.3080       12.3760      0.027000      137.5110      358.7580       71.2590      0.462600        2.0310        1.1200     7272.1455
       559.4604       12.3750      0.024000      137.2310      358.2050       72.4260      0.448200        2.0370        1.1280     7286.9829
       559.6128       12.3730      0.020000      137.3590      357.7100       73.0680      0.425000        2.0370        1.1380     7280.1934
       559.7652       12.3720      0.017000      137.8640      357.9870       73.3840      0.416400        2.0330        1.1460     7253.5254
       559.9176       12.3730      0.016000      138.9470      358.3210       73.3520      0.425000        2.0310        1.1490     7196.9883
       560.0700       12.3740      0.022000      138.5610      359.3170       73.5240      0.433700        2.0330        1.1500     7217.0376
       560.2224       12.3750      0.027000      138.8070      360.1020       74.1940      0.439500        2.0380        1.1520     7204.2471
       560.3748       12.3750      0.025000      139.0640      361.1970       75.0440      0.444300        2.0390        1.1550     7190.9341
       560.5272       12.3740      0.016000      139.5870      363.2220       76.0250      0.441400        2.0360        1.1600     7163.9907
       560.6796       12.3740      0.014000      139.8940      368.5220       77.0610      0.438500        2.0370        1.1680     7148.2695
