~Version Information Block
VERS .                 2.00:  CWLS LOG ASCII STANDARD - VERSION 2.00
WRAP .                   NO:  One line per depth step
~Well Information Block
#MNEM.UNIT        Data Type   Information
#---------- ----------------  -----------
STRT .F                7800:  START DEPTH
STOP .F                8368:  STOP DEPTH
STEP .F                0.25:  STEP
NULL .              -999.25:  NULL VALUE
WELL .                 TEST:  WELL
~Curve Information Block
#MNEM.UNIT         API CODE   Curve Description
#---------- ----------------  -----------------
DEPTH.F                    :  
AT10 .OHMM                 :  Loaded
AT30 .OHMM                 :  Loaded
AT90 .OHMM                 :  Loaded
CALI .IN                   :  Loaded
DTCO .US/F                 :  Filled log.
DTSM .US/F                 :  Loaded
DT_ED.US/F                 :  Edited log.
GR   .GAPI                 :  
NPHI .V/V                  :  Loaded
RHOB .G/C3                 :  Loaded
~Other Information Block
~A        DEPTH           AT10           AT30           AT90           CALI           DTCO           DTSM          DT_ED             GR           NPHI           RHOB 
# ...
      8244.0000         1.6652         1.0549         0.9905        12.6202       126.1290       302.6840       126.1290        78.5459         0.4733         2.2951 
      8244.2500         1.6514         1.0570         0.9921        12.6512       125.6090       302.1330       125.6090        77.8455         0.4861         2.2960 
      8244.5000         1.6377         1.0543         0.9910        12.6851       125.5100       301.3540       125.5100        79.2888         0.5152         2.2971 
      8244.7500         1.6217         1.0510         0.9908        12.7097       125.5310       299.7990       125.5310        81.1664         0.5434         2.2982 
      8245.0000         1.6056         1.0468         0.9916        12.7253       125.6720       297.4690       125.6720        83.4781         0.5707         2.2994 
      8245.2500         1.6008         1.0466         0.9963        12.7348       124.9100       296.3190       124.9100        83.4265         0.5885         2.3025 
      8245.5000         1.5961         1.0502         1.0050        12.7383       123.2450       296.3470       123.2450        81.0115         0.5969         2.3074 
      8245.7500         1.6048         1.0581         1.0176        12.7453       122.4630       296.3350       122.4630        80.2263         0.5882         2.3116 
      8246.0000         1.6136         1.0702         1.0341        12.7559       122.5610       296.2810       122.5610        81.0709         0.5623         2.3151 
      8246.2500         1.6297         1.0840         1.0513        12.7535       122.6690       296.0100       122.6690        81.9633         0.5408         2.3180 
      8246.5000         1.6457         1.0994         1.0690        12.7381       122.7890       295.5180       122.7890        82.9037         0.5237         2.3204 
      8246.7500         1.6676         1.1144         1.0837        12.7195       122.6500       295.0850       122.6500        83.3736         0.5065         2.3224 
      8247.0000         1.6894         1.1291         1.0955        12.6977       122.2530       294.7110       122.2530        83.3732         0.4891         2.3240 
      8247.2500         1.7181         1.1445         1.1060        12.6686       121.9340       294.4190       121.9340        83.6891         0.4796         2.3241 
      8247.5000         1.7468         1.1607         1.1152        12.6322       121.6920       294.2110       121.6920        84.3214         0.4778         2.3229 
      8247.7500         1.7709         1.1772         1.1252        12.5966       121.5660       294.0520       121.5660        84.0300         0.4767         2.3227 
      8248.0000         1.7950         1.1941         1.1360        12.5618       121.5560       293.9410       121.5560        82.8152         0.4763         2.3234 
      8248.2500         1.7905         1.2047         1.1434        12.5466       121.3550       293.9580       121.3550        82.4471         0.4803         2.3231 
      8248.5000         1.7860         1.2089         1.1473        12.5512       120.9640       294.1030       120.9640        82.9258         0.4885         2.3220 
      8248.7500         1.7475         1.2028         1.1437        12.5478       121.1660       294.3090       121.1660        82.8909         0.4914         2.3226 
      8249.0000         1.7091         1.1862         1.1324        12.5364       121.9630       294.5780       121.9630        82.3423         0.4890         2.3251 
      8249.2500         1.6673         1.1669         1.1192        12.5299       122.4640       294.3360       122.4640        80.9890         0.4877         2.3293 
      8249.5000         1.6255         1.1449         1.1041        12.5285       122.6710       293.5860       122.6710        78.8310         0.4874         2.3352 
      8249.7500         1.6120         1.1305         1.0958        12.5326       122.9790       293.0540       122.9790        78.9645         0.4890         2.3386 
      8250.0000         1.5985         1.1237         1.0945        12.5422       123.3890       292.7420       123.3890        81.3895         0.4924         2.3396 
      8250.2500         1.6145         1.1260         1.1007        12.5581       123.4950       292.6950       123.4950        82.7080         0.4929         2.3391 
      8250.5000         1.6306         1.1374         1.1144        12.5805       123.2990       292.9110       123.2990        82.9200         0.4904         2.3371 
      8250.7500         1.6529         1.1508         1.1282        12.5981       123.1570       293.0140       123.1570        83.1826         0.4941         2.3332 
      8251.0000         1.6752         1.1661         1.1419        12.6111       123.0720       293.0040       123.0720        83.4958         0.5040         2.3273 
      8251.2500         1.6829         1.1757         1.1488        12.6207       122.9470       292.5680       122.9470        82.9803         0.4941         2.3250 
      8251.5000         1.6905         1.1796         1.1489        12.6267       122.7830       291.7060       122.7830        81.6362         0.4645         2.3264 
      8251.7500         1.6909         1.1794         1.1450        12.6362       122.8560       290.7730       122.8560        81.0692         0.4504         2.3304 
      8252.0000         1.6913         1.1751         1.1370        12.6492       123.1680       289.7700       123.1680        81.2790         0.4518         2.3371 
      8252.2500         1.7048         1.1739         1.1318        12.6611       123.2590       288.7930       123.2590        81.4500         0.4467         2.3412 
      8252.5000         1.7182         1.1755         1.1294        12.6721       123.1290       287.8430       123.1290        81.5822         0.4350         2.3427 
      8252.7500         1.7363         1.1792         1.1287        12.6927       122.8360       287.2120       122.8360        81.1380         0.4415         2.3433 
      8253.0000         1.7543         1.1847         1.1298        12.7232       122.3800       286.9010       122.3800        80.1176         0.4663         2.3429 
      8253.2500         1.7471         1.1850         1.1273        12.7302       122.0210       286.7730       122.0210        79.7299         0.4761         2.3407 
      8253.5000         1.7398         1.1800         1.1210        12.7137       121.7570       286.8290       121.7570        79.9751         0.4709         2.3369 
      8253.7500         1.7146         1.1714         1.1133        12.7012       121.6050       286.7860       121.6050        80.9233         0.4656         2.3360 
      8254.0000         1.6894         1.1592         1.1042        12.6926       121.5640       286.6420       121.5640        82.5744         0.4603         2.3382 
      8254.2500         1.6776         1.1504         1.0989        12.6913       121.6000       287.4840       121.6000        83.8555         0.4533         2.3391 
      8254.5000         1.6658         1.1450         1.0973        12.6974       121.7140       289.3120       121.7140        84.7663         0.4447         2.3387 
      8254.7500         1.6679         1.1427         1.0980        12.7011       121.7410       290.3550       121.7410        85.3440         0.4501         2.3390 
      8255.0000         1.6699         1.1435         1.1008        12.7024       121.6830       290.6170       121.6830        85.5883         0.4695         2.3400 
      8255.2500         1.6624         1.1422         1.1013        12.7011       121.7180       291.3170       121.7180        84.8969         0.4795         2.3398 
      8255.5000         1.6548         1.1389         1.0996        12.6973       121.8460       292.4560       121.8460        83.2697         0.4801         2.3384 
      8255.7500         1.6289         1.1309         1.0941        12.6980       122.1370       293.1840       122.1370        81.8735         0.4844         2.3393 
