~Version Information Block
VERS .                 2.00:  CWLS LOG ASCII STANDARD - VERSION 2.00
WRAP .                   NO:  One line per depth step
~Well Information Block
#MNEM.UNIT        Data Type   Information
#---------- ----------------  -----------
STRT .F                7800:  START DEPTH
STOP .F                8368:  STOP DEPTH
STEP .F                0.25:  STEP
NULL .              -999.25:  NULL VALUE
WELL .                 TEST:  WELL
~Curve Information Block
#MNEM.UNIT         API CODE   Curve Description
#---------- ----------------  -----------------
DEPTH.F                    :  
AT10 .OHMM                 :  Loaded
AT30 .OHMM                 :  Loaded
AT90 .OHMM                 :  Loaded
CALI .IN                   :  Loaded
DTCO .US/F                 :  Filled log.
DTSM .US/F                 :  Loaded
DT_ED.US/F                 :  Edited log.
GR   .GAPI                 :  
NPHI .V/V                  :  Loaded
RHOB .G/C3                 :  Loaded
~Other Information Block
~A        DEPTH           AT10           AT30           AT90           CALI           DTCO           DTSM          DT_ED             GR           NPHI           RHOB 
# ...
      7980.0000         1.3632         0.9638         0.8876        12.6084       115.4860       268.6670       115.4860        74.1474         0.4309         2.3020 
      7980.2500         1.3153         0.9366         0.8668        12.5972       115.1040       266.8720       115.1040        72.8974         0.4034         2.2716 
      7980.5000         1.2674         0.9083         0.8511        12.6217       114.6160       266.1040       114.6160        71.7224         0.3807         2.2329 
      7980.7500         1.2373         0.8846         0.8416        12.6404       114.6040       267.7610       114.6040        68.7223         0.3843         2.2074 
      7981.0000         1.2071         0.8656         0.8383        12.6532       115.0700       271.8460       115.0700        63.8970         0.4143         2.1951 
      7981.2500         1.2201         0.8581         0.8416        12.7001       115.2290       274.7730       115.2290        58.9983         0.4432         2.2005 
      7981.5000         1.2332         0.8621         0.8514        12.7811       115.0800       276.5440       115.0800        54.0260         0.4709         2.2236 
      7981.7500         1.2880         0.8784         0.8674        12.8151       115.2120       278.2730       115.2120        54.2500         0.4857         2.2557 
      7982.0000         1.3427         0.9070         0.8893        12.8022       115.6240       279.9600       115.6240        59.6701         0.4874         2.2968 
      7982.2500         1.4126         0.9403         0.9137        12.7824       115.8590       281.9310       115.8590        64.7333         0.4883         2.3264 
      7982.5000         1.4824         0.9786         0.9405        12.7559       115.9170       284.1860       115.9170        69.4395         0.4884         2.3445 
      7982.7500         1.5473         1.0143         0.9652        12.7423       115.8610       283.5730       115.8610        73.3474         0.4747         2.3532 
      7983.0000         1.6122         1.0474         0.9876        12.7416       115.6930       280.0920       115.6930        76.4570         0.4472         2.3524 
      7983.2500         1.6743         1.0783         1.0068        12.7008       115.5140       277.0430       115.5140        78.2158         0.4414         2.3526 
      7983.5000         1.7364         1.1068         1.0227        12.6200       115.3260       274.4270       115.3260        78.6239         0.4574         2.3536 
      7983.7500         1.7862         1.1326         1.0371        12.5687       115.3080       273.2260       115.3080        79.2706         0.4528         2.3470 
      7984.0000         1.8361         1.1558         1.0499        12.5470       115.4620       273.4400       115.4620        80.1557         0.4276         2.3326 
      7984.2500         1.8492         1.1729         1.0620        12.5663       115.8830       273.6610       115.8830        79.2237         0.4262         2.3191 
      7984.5000         1.8624         1.1839         1.0731        12.6267       116.5740       273.8910       116.5740        76.4747         0.4487         2.3065 
      7984.7500         1.8408         1.1883         1.0819        12.7049       116.9270       273.3960       116.9270        74.7186         0.4708         2.3027 
      7985.0000         1.8193         1.1861         1.0883        12.8008       116.9450       272.1800       116.9450        73.9553         0.4925         2.3076 
      7985.2500         1.7972         1.1835         1.0938        12.8841       117.0450       270.8320       117.0450        73.4548         0.5152         2.3171 
      7985.5000         1.7751         1.1804         1.0983        12.9548       117.2270       269.3520       117.2270        73.2171         0.5388         2.3314 
      7985.7500         1.7760         1.1833         1.1065        12.9503       116.8460       268.5780       116.8460        73.5408         0.5483         2.3392 
      7986.0000         1.7770         1.1920         1.1184        12.8708       115.9030       268.5120       115.9030        74.4261         0.5437         2.3406 
      7986.2500         1.7936         1.2047         1.1336        12.8573       114.9060       268.0320       114.9060        74.6870         0.5198         2.3338 
      7986.5000         1.8101         1.2214         1.1522        12.9096       113.8540       267.1410       113.8540        74.3232         0.4765         2.3187 
      7986.7500         1.8173         1.2355         1.1670        12.9508       113.0980       265.9610       113.0980        74.9131         0.4464         2.3156 
      7987.0000         1.8245         1.2471         1.1782        12.9806       112.6360       264.4930       112.6360        76.4567         0.4294         2.3245 
      7987.2500         1.8061         1.2524         1.1826        12.9620       112.1820       263.4600       112.1820        77.2637         0.4210         2.3322 
      7987.5000         1.7876         1.2514         1.1803        12.8946       111.7340       262.8620       111.7340        77.3341         0.4213         2.3386 
      7987.7500         1.7543         1.2456         1.1746        12.8627       111.6600       262.6740       111.6600        76.6743         0.4399         2.3415 
      7988.0000         1.7209         1.2348         1.1652        12.8661       111.9580       262.8960       111.9580        75.2841         0.4770         2.3407 
      7988.2500         1.6908         1.2207         1.1531        12.8596       112.5220       263.1200       112.5220        74.0983         0.4939         2.3395 
      7988.5000         1.6607         1.2034         1.1381        12.8433       113.3500       263.3480       113.3500        73.1167         0.4907         2.3377 
      7988.7500         1.6378         1.1842         1.1205        12.8305       114.0790       263.9320       114.0790        72.7805         0.4883         2.3397 
      7989.0000         1.6150         1.1633         1.1003        12.8209       114.7070       264.8740       114.7070        73.0896         0.4868         2.3456 
      7989.2500         1.5969         1.1458         1.0842        12.8046       114.8160       265.5490       114.8160        73.0047         0.4751         2.3523 
      7989.5000         1.5788         1.1316         1.0723        12.7815       114.4060       265.9570       114.4060        72.5258         0.4534         2.3598 
      7989.7500         1.5631         1.1222         1.0681        12.7322       114.7060       267.5580       114.7060        72.4145         0.4471         2.3586 
      7990.0000         1.5475         1.1176         1.0716        12.6566       115.7160       270.3520       115.7160        72.6708         0.4565         2.3487 
      7990.2500         1.5278         1.1122         1.0748        12.6096       116.1630       273.4830       116.1630        72.9441         0.4665         2.3337 
      7990.5000         1.5082         1.1060         1.0778        12.5914       116.0470       276.9530       116.0470        73.2343         0.4771         2.3135 
      7990.7500         1.4784         1.0950         1.0713        12.5955       116.3570       278.9920       116.3570        73.1508         0.4837         2.2981 
      7991.0000         1.4486         1.0791         1.0554        12.6219       117.0950       279.6030       117.0950        72.6938         0.4861         2.2875 
      7991.2500         1.4138         1.0595         1.0328        12.6688       117.4760       280.1500       117.4760        72.5462         0.4824         2.2830 
      7991.5000         1.3789         1.0363         1.0037        12.7362       117.5000       280.6340       117.5000        72.7078         0.4727         2.2847 
      7991.7500         1.3491         1.0122         0.9759        12.7869       118.0840       281.4430       118.0840        72.2021         0.4590         2.2894 
