~Version Information Block
VERS .                 2.00:  CWLS LOG ASCII STANDARD - VERSION 2.00
WRAP .                  YES:  Multiple lines per depth step
~Well Information Block
#MNEM.UNIT        Data Type   Information
#---------- ----------------  -----------
STRT .F                3000:  START DEPTH
STOP .F                3120:  STOP DEPTH
STEP .F                 0.5:  STEP
NULL .              -999.25:  NULL VALUE
COMP .            Ewing Oil:  COMPANY
WELL .         Sue Ellen #4:  WELL
FLD  .      SouthFork Ranch:  FIELD
LOC  .                Plano:  LOCATION
CNTY .               Collin:  COUNTY
STAT .                Texas:  STATE
CTRY .                   US:  COUNTRY
API  .           1234512345:  API NUMBER
SRVC .  Unified Development:  SERVICE COMPANY
DATE .            1/11/1988:  LOG DATE
~Curve Information Block
#MNEM.UNIT         API CODE   Curve Description
#---------- ----------------  -----------------
DEPTH.F                    :  Depth
AO10 .OHMM                 :  ShalRes    NA
AO20 .OHMM                 :  ShalRes    NA
AO30 .OHMM                 :  MedRes     NA
AO60 .OHMM                 :  MedRes     NA
AO90 .OHMM                 :  XDeepRes   NA
AT10 .OHMM                 :  ShalRes    NA
AT20 .OHMM                 :  ShalRes    NA
AT30 .OHMM                 :  MedRes     NA
AT60 .OHMM                 :  MedRes     NA
AT90 .OHMM                 :  XDeepRes   NA
C_POR.%                    :  
C_RHOB.G/C3                 :  
C_RHOG.G/C3                 :  
C_SW .%                    :  
DT   .US/F                 :  Sonic
DT1R .US/F                 :  ShearSonic NA
DT2R .US/F                 :  ShearSonic NA
DT4P .US/F                 :  Sonic      NA
DT4S .US/F                 :  ShearSonic NA
DTCO .US/F                 :  Sonic      NA
NPHI .V/V                  :  Neutron    NA
NPOR .V/V                  :  Neutron    NA
PEFZ .B/E                  :  PEF        HRDD                              :NA
PHIT_311 .DEC              :  PhiT
RDEEP.OHMM                 :  XDeepRes   NA
RHO8 .G/C3                 :  Density    NA
RHOB .G/C3                 :  Density
RHOZ .G/C3                 :  Density    NA
SP   .MV                   :  SP         NA
SW_311.DEC                 :  Sw   
TEMP .F                    :  Temp
~Parameter Information Block
#MNEM.UNIT            Value   Description
#---------- ----------------  -----------
JUNK .                 0.28:  rifle range
RW   .OHMM             0.04:  Resistivity of Water
LATI .            34/34/4.4:  Latitude {DEG/MIN/SEC}
LONG .         -102/20/44.4:  Longitude {DEG/MIN/SEC}
B_JUNK.                   2:  B Factor
A_JUNK.                   2:  Saturation Speed
WELL_NAME.          well #4:  Well Name
~Other Information Block
~Ascii Log Data
# ...
         3018.0
       10.8201        9.3100       10.5609       10.9577       10.7875
       10.2415        9.8418       10.2684       10.5820       10.4222
     -999.2500     -999.2500     -999.2500     -999.2500       76.8030
      151.5100      146.8970       76.8030      145.8290       76.8030
      0.190000      0.193900        3.1907      0.068936       10.4222
        2.6423        2.6423        2.6381     -200.1250        1.0000
      160.0000
         3018.5
       14.0208       13.7352       13.7104       14.0616       13.9378
       11.5098       10.8582       11.5480       12.2189       11.9489
     -999.2500     -999.2500     -999.2500     -999.2500       77.9618
      152.1030      149.3870       77.9618      149.2100       77.9618
      0.179200      0.142900        3.1178      0.071865       11.9489
        2.6301        2.6301        2.6400     -200.1880        0.9001
      160.0000
         3019.0
        8.4120        7.9405        8.2175        8.5392        8.4162
       10.2949        9.7868       10.2195       10.5076       10.2981
     -999.2500     -999.2500     -999.2500     -999.2500       75.8995
      148.9970      147.7550       75.8995      153.3920       75.8995
      0.176100      0.161100        3.0816      0.066635       10.2981
        2.6597        2.6597        2.6440     -199.4380        1.0000
      160.0000
         3019.5
       10.0617        9.8560       10.2899        9.7637        9.6164
       10.1781        9.7791       10.3829       10.7579       10.5965
     -999.2500     -999.2500     -999.2500     -999.2500       75.7763
      148.1840      147.2660       75.7763      152.4550       75.7763
      0.195600      0.198700        3.0797      0.066320       10.5965
        2.6584        2.6584        2.6539     -199.4380        1.0000
      160.0000
         3020.0
       10.5244       10.6425       10.9751       11.0630       10.8691
       10.6016       10.0812       10.6495       10.7176       10.6618
     -999.2500     -999.2500     -999.2500     -999.2500       76.0382
      149.0880      146.9620       76.0382      151.5180       76.0382
      0.191200      0.185300        3.0877      0.066989       10.6618
        2.6560        2.6560        2.6669     -198.9380        1.0000
      160.0000
         3020.5
        9.3339        8.6096        9.7234       10.1750       10.0029
       10.9760        9.9906       10.7818       11.0528       10.8355
     -999.2500     -999.2500     -999.2500     -999.2500       77.9558
      151.0090      147.8970       77.9558      150.5810       77.9558
      0.174400      0.175700        3.1199      0.071850       10.8355
        2.6777        2.6777        2.6702     -199.1250        0.9454
      160.0000
         3021.0
       13.5112       13.3792       13.2296       13.9066       13.6828
       11.8341       10.6975       11.3091       11.6519       11.3466
     -999.2500     -999.2500     -999.2500     -999.2500       77.7595
      154.2560      150.7500       77.7595      149.6450       77.7595
      0.165500      0.156700        3.1870      0.071356       11.3466
        2.6833        2.6833        2.6651     -199.1250        0.9303
      160.0000
         3021.5
        9.4183        9.4100        9.6187       10.3934       10.2096
        9.6923        9.2128        9.8668       10.2105        9.8438
     -999.2500     -999.2500     -999.2500     -999.2500       78.6244
      151.4230      148.7560       78.6244      149.7480       78.6244
      0.178200      0.170300        3.2353      0.073527        9.8438
        2.6852        2.6852        2.6668     -198.4380        0.9693
      160.0000
         3022.0
        7.7796        7.4061        7.5316        7.7268        7.6242
        8.1594        7.7280        8.1325        8.5127        8.2180
     -999.2500     -999.2500     -999.2500     -999.2500       78.6725
      155.1900      150.4040       78.6725      149.8520       78.6725
      0.212400      0.210400        3.2490      0.073647        8.2180
        2.6408        2.6408        2.6648     -198.6880        1.0000
      160.0000
         3022.5
        8.1766        7.4389        7.9756        8.2166        8.0981
        8.4213        7.8442        8.1965        8.5708        8.3532
     -999.2500     -999.2500     -999.2500     -999.2500       79.3424
      156.3100      158.2280       79.3424      151.0850       79.3424
      0.216600      0.234700        3.2062      0.075316        8.3532
        2.6570        2.6570        2.6658     -198.9380        1.0000
      160.0000
         3023.0
       10.8779        9.3956        9.5973        9.9878        9.8094
        9.4447        9.1444        9.6467        9.8785        9.7131
     -999.2500     -999.2500     -999.2500     -999.2500       79.0352
      158.0310      159.0970       79.0352      152.3190       79.0352
      0.197500      0.193200        3.1804      0.074552        9.7131
        2.6667        2.6667        2.6553     -198.1880        0.9624
      160.0000
         3023.5
       12.3452       12.2638       12.9602       13.3707       13.0467
       10.0851        9.8516       10.4096       10.4979       10.5265
     -999.2500     -999.2500     -999.2500     -999.2500       79.3211
      157.3470      156.0220       79.3211      151.7220       79.3211
      0.181100      0.151900        3.1698      0.075263       10.5265
        2.6703        2.6703        2.6504     -198.5000        0.9157
      160.0000
         3024.0
        8.8014        8.4422        8.5400        8.7239        8.5796
        9.3182        8.9136        9.2539        9.4963        9.3011
     -999.2500     -999.2500     -999.2500     -999.2500       78.2571
      155.7100      150.6430       78.2571      150.9640       78.2571
      0.209500      0.189700        3.2018      0.072607        9.3011
        2.6532        2.6532        2.6475     -198.5000        1.0000
      160.0000
         3024.5
        8.2964        8.0514        8.4521        8.7854        8.6385
        8.7417        8.3070        8.6834        8.9163        8.7733
     -999.2500     -999.2500     -999.2500     -999.2500       78.0108
      152.0350      151.8480       78.0108      150.8690       78.0108
      0.225400      0.227700        3.2810      0.071988        8.7733
        2.6432        2.6432        2.6512     -197.8120        1.0000
      160.0000
         3025.0
        9.5176        8.6116        8.8621        9.4596        9.2877
        9.4747        8.8613        9.1990        9.4496        9.2169
     -999.2500     -999.2500     -999.2500     -999.2500       77.9978
      158.1750      154.9150       77.9978      151.2250       77.9978
      0.225100      0.232200        3.3583      0.071955        9.2169
        2.6641        2.6641        2.6687     -198.0620        1.0000
      160.0000
         3025.5
       11.4725       10.1118       10.4893       11.0094       10.7772
       10.2459        9.8245       10.2259       10.4732       10.2543
     -999.2500     -999.2500     -999.2500     -999.2500       77.6776
      154.2250      152.8120       77.6776      150.9820       77.6776
      0.197000      0.169900        3.4129      0.071149       10.2543
        2.7238        2.7238        2.6874     -197.3750        0.9814
      160.0000
         3026.0
       10.8706       11.5058       12.0701       12.0144       11.7362
        9.6962        9.5672       10.1469       10.5066       10.3136
     -999.2500     -999.2500     -999.2500     -999.2500       78.9652
      154.9670      154.8150       78.9652      153.8700       78.9652
      0.199700      0.178600        3.4197      0.074377       10.3136
        2.7133        2.7133        2.7004     -197.7500        0.9361
      160.0000
         3026.5
        7.1893        7.5881        8.2758        8.4781        8.3380
        8.3972        8.1438        8.4862        8.7529        8.5910
     -999.2500     -999.2500     -999.2500     -999.2500       80.0825
      159.6010      159.4410       80.0825      156.4380       80.0825
      0.214200      0.217700        3.4099      0.077146        8.5910
        2.6832        2.6832        2.6979     -197.5000        0.9889
      160.0000
