~Version Information Block
VERS .                 2.00:  CWLS LOG ASCII STANDARD - VERSION 2.00
WRAP .                  YES:  Multiple lines per depth step
~Well Information Block
#MNEM.UNIT        Data Type   Information
#---------- ----------------  -----------
STRT .F                3000:  START DEPTH
STOP .F                3120:  STOP DEPTH
STEP .F                 0.5:  STEP
NULL .              -999.25:  NULL VALUE
COMP .            Ewing Oil:  COMPANY
WELL .         Sue Ellen #4:  WELL
FLD  .      SouthFork Ranch:  FIELD
LOC  .                Plano:  LOCATION
CNTY .               Collin:  COUNTY
STAT .                Texas:  STATE
CTRY .                   US:  COUNTRY
API  .           1234512345:  API NUMBER
SRVC .  Unified Development:  SERVICE COMPANY
DATE .            1/11/1988:  LOG DATE
~Curve Information Block
#MNEM.UNIT         API CODE   Curve Description
#---------- ----------------  -----------------
DEPTH.F                    :  Depth
AO10 .OHMM                 :  ShalRes    NA
AO20 .OHMM                 :  ShalRes    NA
AO30 .OHMM                 :  MedRes     NA
AO60 .OHMM                 :  MedRes     NA
AO90 .OHMM                 :  XDeepRes   NA
AT10 .OHMM                 :  ShalRes    NA
AT20 .OHMM                 :  ShalRes    NA
AT30 .OHMM                 :  MedRes     NA
AT60 .OHMM                 :  MedRes     NA
AT90 .OHMM                 :  XDeepRes   NA
C_POR.%                    :  
C_RHOB.G/C3                 :  
C_RHOG.G/C3                 :  
C_SW .%                    :  
DT   .US/F                 :  Sonic
DT1R .US/F                 :  ShearSonic NA
DT2R .US/F                 :  ShearSonic NA
DT4P .US/F                 :  Sonic      NA
DT4S .US/F                 :  ShearSonic NA
DTCO .US/F                 :  Sonic      NA
NPHI .V/V                  :  Neutron    NA
NPOR .V/V                  :  Neutron    NA
PEFZ .B/E                  :  PEF        HRDD                              :NA
PHIT_311 .DEC              :  PhiT
RDEEP.OHMM                 :  XDeepRes   NA
RHO8 .G/C3                 :  Density    NA
RHOB .G/C3                 :  Density
RHOZ .G/C3                 :  Density    NA
SP   .MV                   :  SP         NA
SW_311.DEC                 :  Sw   
TEMP .F                    :  Temp
~Parameter Information Block
#MNEM.UNIT            Value   Description
#---------- ----------------  -----------
JUNK .                 0.28:  rifle range
RW   .OHMM             0.04:  Resistivity of Water
LATI .            34/34/4.4:  Latitude {DEG/MIN/SEC}
LONG .         -102/20/44.4:  Longitude {DEG/MIN/SEC}
B_JUNK.                   2:  B Factor
A_JUNK.                   2:  Saturation Speed
WELL_NAME.          well #4:  Well Name
~Other Information Block
~Ascii Log Data
# ...
         3045.0
        9.2752        9.0087        9.2227        9.5739        9.4353
        8.8592        8.4753        8.8689        9.1311        9.0010
     -999.2500     -999.2500     -999.2500     -999.2500       80.0774
      158.7690      158.8290       80.0774      154.3360       80.0774
      0.232100      0.228800        3.3751      0.077134        9.0010
        2.6166        2.6166        2.6417     -201.8120        0.9663
      160.0000
         3045.5
        8.5572        8.5554        8.6799        8.9072        8.7892
        8.8529        8.4244        8.7779        9.1000        8.9451
     -999.2500     -999.2500     -999.2500     -999.2500       79.4702
      158.9750      158.2750       79.4702      153.6360       79.4702
      0.225600      0.240300        3.2848      0.075633        8.9451
        2.6379        2.6379        2.6413     -202.1880        0.9885
      160.0000
         3046.0
        8.5903        8.2272        8.4005        8.6380        8.5297
        8.8500        8.4202        8.7245        9.0678        8.9135
     -999.2500     -999.2500     -999.2500     -999.2500       78.7870
      157.4110      153.6320       78.7870      154.1780       78.7870
      0.210500      0.214500        3.2699      0.073933        8.9135
        2.6479        2.6479        2.6490     -202.3120        1.0000
      160.0000
         3046.5
        9.4402        8.8531        9.5266        9.7071        9.5715
        9.2014        8.6961        9.0935        9.3882        9.2250
     -999.2500     -999.2500     -999.2500     -999.2500       77.1405
      158.3890      156.6310       77.1405      149.6320       77.1405
      0.208900      0.197200        3.2650      0.069792        9.2250
        2.6792        2.6792        2.6639     -202.1250        1.0000
      160.0000
         3047.0
        9.5819        8.9291        9.3953       10.1121        9.9682
        9.4953        8.9180        9.4072        9.7884        9.5885
     -999.2500     -999.2500     -999.2500     -999.2500       76.9828
      154.5570      152.8760       76.9828      150.6960       76.9828
      0.200700      0.211800        3.2268      0.069392        9.5885
        2.6691        2.6691        2.6697     -202.1880        1.0000
      160.0000
         3047.5
        9.8177        9.1181        9.4783        9.7543        9.6196
        9.8382        9.1340        9.6044        9.9481        9.7776
     -999.2500     -999.2500     -999.2500     -999.2500       76.9533
      154.0160      150.7430       76.9533      151.9400       76.9533
      0.203400      0.182800        3.1584      0.069318        9.7776
        2.6659        2.6659        2.6696     -202.5620        1.0000
      160.0000
         3048.0
        9.7294        8.9478        9.8715       10.2233       10.0766
        9.8597        9.1676        9.6436        9.9656        9.7995
     -999.2500     -999.2500     -999.2500     -999.2500       77.5086
      158.4660      151.9720       77.5086      153.1850       77.5086
      0.187600      0.179300        3.1183      0.070723        9.7995
        2.6725        2.6725        2.6645     -202.0000        1.0000
      160.0000
         3048.5
        9.8937        9.1532        9.6171        9.9311        9.7928
        9.5612        9.1082        9.6138        9.8873        9.7336
     -999.2500     -999.2500     -999.2500     -999.2500       78.3643
      158.4810      150.7750       78.3643      150.8650       78.3643
      0.193500      0.194300        3.1187      0.072875        9.7336
        2.6561        2.6561        2.6551     -202.2500        0.9835
      160.0000
         3049.0
        9.6995        9.3221        9.5287        9.6490        9.5197
        9.1326        8.7146        9.2053        9.4362        9.2767
     -999.2500     -999.2500     -999.2500     -999.2500       78.4663
      158.0650      155.6040       78.4663      157.8400       78.4663
      0.194700      0.188700        3.1516      0.073131        9.2767
        2.6653        2.6653        2.6466     -202.1880        1.0000
      160.0000
         3049.5
        7.5857        7.8309        8.3188        8.4563        8.3546
        8.4817        8.1066        8.4876        8.7485        8.5886
     -999.2500     -999.2500     -999.2500     -999.2500       79.1569
      158.5000      154.0400       79.1569      152.7420       79.1569
      0.215600      0.210500        3.1636      0.074855        8.5886
        2.6499        2.6499        2.6485     -202.8120        1.0000
      160.0000
         3050.0
        7.9618        7.7524        7.8445        7.9605        7.8680
        8.5324        8.2463        8.4766        8.5628        8.5383
     -999.2500     -999.2500     -999.2500     -999.2500       79.0641
      156.8200      152.8650       79.0641      152.0070       79.0641
      0.218500      0.213000        3.1735      0.074624        8.5383
        2.6495        2.6495        2.6552     -203.1880        1.0000
      160.0000
         3050.5
        9.3901        8.9186        9.3793        9.8877        9.7420
        9.3226        8.9221        9.2524        9.5194        9.2809
     -999.2500     -999.2500     -999.2500     -999.2500       79.4282
      157.8410      156.1150       79.4282      152.5200       79.4282
      0.212600      0.207300        3.1549      0.075529        9.2809
        2.6871        2.6871        2.6653     -202.5000        0.9718
      160.0000
         3051.0
       10.4606        9.5644        9.9130       10.2084       10.0487
       10.0719        9.6354        9.9815       10.3258       10.0040
     -999.2500     -999.2500     -999.2500     -999.2500       78.4814
      154.6440      148.0500       78.4814      148.2360       78.4814
      0.189400      0.184600        3.1576      0.073169       10.0040
        2.6675        2.6675        2.6668     -203.3750        0.9662
      160.0000
         3051.5
       10.0498       10.2870       10.6929       10.9260       10.7411
       10.2231        9.9953       10.2078       10.5920       10.2201
     -999.2500     -999.2500     -999.2500     -999.2500       76.3225
      148.8540      147.9920       76.3225      143.9520       76.3225
      0.189900      0.166500        3.1716      0.067714       10.2201
        2.6689        2.6689        2.6716     -203.6250        1.0000
      160.0000
         3052.0
        9.5872        9.5835       10.2075       10.6104       10.4300
       10.5364       10.0228       10.5445       10.8493       10.4957
     -999.2500     -999.2500     -999.2500     -999.2500       75.6747
      149.0350      147.9930       75.6747      139.6670       75.6747
      0.175600      0.190900        3.1940      0.066060       10.4957
        2.7028        2.7028        2.6705     -202.6880        1.0000
      160.0000
         3052.5
       12.1451       10.4217       12.5326       12.8004       12.5386
       12.0845       11.1814       11.7969       12.2288       11.7207
     -999.2500     -999.2500     -999.2500     -999.2500       73.7386
      145.1060      142.6320       73.7386      135.3640       73.7386
      0.169600      0.166700        3.1792      0.061080       11.7207
        2.6741        2.6741        2.6615     -202.9380        1.0000
      160.0000
         3053.0
       14.1363       13.0815       14.9541       14.4907       14.1426
       13.6688       12.8261       13.6803       13.8288       13.4616
     -999.2500     -999.2500     -999.2500     -999.2500       72.5122
      142.0420      140.3920       72.5122      140.1110       72.5122
      0.153600      0.121500        3.1046      0.057905       13.4616
        2.6546        2.6546        2.6551     -202.1880        1.0000
      160.0000
         3053.5
       13.4661       12.6254       13.5436       15.4397       15.0564
       13.3821       12.7119       13.6083       13.7141       13.4106
     -999.2500     -999.2500     -999.2500     -999.2500       72.2133
      141.2720      141.3660       72.2133      136.1260       72.2133
      0.151800      0.148300        3.0346      0.057129       13.4106
        2.6576        2.6576        2.6501     -201.8120        1.0000
      160.0000
