~Version Information Block
VERS .                 2.00:  CWLS LOG ASCII STANDARD - VERSION 2.00
WRAP .                   NO:  One line per depth step
~Well Information Block
#MNEM.UNIT        Data Type   Information
#---------- ----------------  -----------
STRT .M            500.0244:  START DEPTH
STOP .M            620.1156:  STOP DEPTH
STEP .M              0.1524:  STEP
NULL .              -999.25:  NULL VALUE
COMP .                     :  COMPANY
WELL .               WELL#2:  WELL
~Curve Information Block
#MNEM.UNIT         API CODE   Curve Description
#---------- ----------------  -----------------
DEPTH.M                    :  Measured Depth
CAL  .IN            UNKNOWN:  CAL:EXTERNAL:rC:NONE:v1
DRHO .G/C3          UNKNOWN:  ZCOR:EXTERNAL:rC:NONE:v1
DT   .US/F          UNKNOWN:  DT::rC:NONE:v1
DTS  .US/F          UNKNOWN:  DTS:EXTERNAL:rC:NONE:v1
GR   .GAPI          UNKNOWN:  GR:EXTERNAL:rC:NONE:v1
NPHI .V/V           UNKNOWN:  NPHI_NORM:v0
RHOB .G/C3          UNKNOWN:  Z3EN:EXTERNAL:rC:NONE:v1
RT   .OHMM          UNKNOWN:  M3RX:EXTERNAL:rC:NONE:v1
VP   .FT/S                 :  Output Velocity
~Parameter Information Block
#MNEM.UNIT            Value   Description
#---------- ----------------  -----------
ELEV_TYPE.                   KB:  ELEV TYPE
LAT  .             100.8026:  LATITUDE
LON  .             100.4617:  LONGITUDE
~Other Information Block
~A        DEPTH            CAL           DRHO             DT            DTS             GR           NPHI           RHOB             RT             VP
# ...
       508.7112       12.3770      0.014000      159.0910      474.6790       82.5240      0.447200        2.0860        1.0550     6285.7104
       508.8636       12.3760      0.014000      158.2450      469.9330       81.8770      0.460700        2.0940        1.0840     6319.3149
       509.0160       12.3730      0.014000      156.3710      466.2330       81.5100      0.477100        2.1040        1.1330     6395.0474
       509.1684       12.3720      0.013000      156.0970      463.1680       81.4130      0.484800        2.1100        1.1810     6406.2729
       509.3208       12.3720      0.014000      155.3030      461.5660       81.3010      0.480000        2.1130        1.2040     6439.0259
       509.4732       12.3710      0.017000      155.3580      461.3800       81.3640      0.481900        2.1140        1.2050     6436.7461
       509.6256       12.3740      0.017000      154.9070      461.6330       81.4730      0.496300        2.1120        1.2030     6455.4863
       509.7780       12.3790      0.015000      154.8490      460.3730       80.7110      0.507900        2.1120        1.2100     6457.9043
       509.9304       12.3780      0.015000      153.0300      456.8040       79.0210      0.505000        2.1150        1.2270     6534.6665
       510.0828       12.3720      0.015000      153.1300      450.9930       77.7420      0.490600        2.1200        1.2430     6530.3989
       510.2352       12.3690      0.016000      152.7100      444.2470       77.9110      0.485700        2.1230        1.2570     6548.3594
       510.3876       12.3720      0.020000      153.1760      437.5080       78.0470      0.493400        2.1220        1.2650     6528.4380
       510.5400       12.3760      0.025000      152.2410      431.2710       76.7220      0.487700        2.1200        1.2640     6568.5327
       510.6924       12.3770      0.030000      149.4270      425.0490       75.4310      0.467400        2.1240        1.2610     6692.2310
       510.8448       12.3730      0.032000      150.2770      418.5230       75.1480      0.466500        2.1340        1.2750     6654.3784
       510.9972       12.3690      0.026000      147.4890      411.6350       73.8010      0.475100        2.1430        1.3200     6780.1665
       511.1496       12.3700      0.019000      145.1060      404.9630       70.9020      0.473200        2.1470        1.3880     6891.5137
       511.3020       12.3730      0.020000      143.4220      399.0980       68.7460      0.459700        2.1480        1.4560     6972.4312
       511.4544       12.3720      0.026000      140.6670      394.1330       67.4330      0.439500        2.1440        1.4920     7108.9873
       511.6068       12.3680      0.033000      141.5610      390.1510       64.9760      0.420200        2.1340        1.4900     7064.0923
       511.7592       12.3680      0.033000      142.4000      386.4440       62.0320      0.405800        2.1140        1.4550     7022.4722
       511.9116       12.3720      0.024000      142.7140      383.3510       60.6350      0.408700        2.0840        1.3800     7007.0210
       512.0640       12.3730      0.018000      143.0170      381.0710       60.1060      0.431800        2.0540        1.2770     6992.1758
       512.2164       12.3710      0.021000      144.2140      380.2190       58.6580      0.455900        2.0330        1.1870     6934.1392
       512.3688       12.3690      0.029000      144.7370      380.3880       56.6400      0.457800        2.0180        1.1220     6909.0835
       512.5212       12.3720      0.035000      145.4600      381.3350       55.1420      0.450100        2.0040        1.0710     6874.7417
       512.6736       12.3770      0.038000      145.4690      382.7120       54.4170      0.450100        1.9950        1.0340     6874.3174
       512.8260       12.3780      0.036000      145.2330      384.4210       54.4670      0.461700        1.9920        1.0140     6885.4873
       512.9784       12.3730      0.033000      145.1060      386.2480       54.8370      0.465500        1.9890        1.0080     6891.5137
       513.1308       12.3700      0.028000      144.6560      387.9640       54.8400      0.442400        1.9850        1.0060     6912.9517
       513.2832       12.3700      0.026000      144.1970      389.2900       54.5530      0.418300        1.9820        1.0050     6934.9565
       513.4356       12.3700      0.028000      145.4710      389.7730       54.3740      0.419300        1.9820        1.0020     6874.2227
       513.5880       12.3720      0.031000      145.9980      389.2680       54.5250      0.433700        1.9820        0.9980     6849.4087
       513.7404       12.3760      0.032000      147.1510      387.8100       55.0450      0.436600        1.9810        0.9930     6795.7402
       513.8928       12.3770      0.028000      146.5860      385.9620       55.9770      0.431800        1.9790        0.9900     6821.9341
       514.0452       12.3720      0.023000      146.1090      384.1630       57.2120      0.433700        1.9770        0.9870     6844.2056
       514.1976       12.3680      0.025000      145.9890      382.8400       58.1120      0.425000        1.9780        0.9840     6849.8311
       514.3500       12.3710      0.029000      145.2500      382.1600       57.8670      0.413500        1.9780        0.9830     6884.6816
       514.5024       12.3740      0.029000      144.9570      382.2230       57.3270      0.427900        1.9740        0.9830     6898.5977
       514.6548       12.3760      0.024000      145.4240      383.1240       57.4360      0.461700        1.9690        0.9860     6876.4443
       514.8072       12.3760      0.019000      145.4250      384.7550       57.4500      0.485700        1.9660        0.9890     6876.3965
       514.9596       12.3750      0.015000      145.4990      387.1530       56.8450      0.489600        1.9650        0.9900     6872.8999
       515.1120       12.3730      0.014000      145.6350      390.8630       56.6140      0.478000        1.9660        0.9920     6866.4814
       515.2644       12.3720      0.018000      145.0690      397.8340       57.0540      0.473200        1.9730        0.9940     6893.2715
       515.4168       12.3700      0.026000      145.9950      409.9620       57.3750      0.481900        1.9840        0.9990     6849.5498
       515.5692       12.3700      0.029000      146.7680      427.2150       57.8290      0.486700        1.9970        1.0100     6813.4741
       515.7216       12.3740      0.031000      148.9510      446.2430       59.4210      0.482800        2.0160        1.0240     6713.6172
       515.8740       12.3760      0.031000      151.0000      462.7610       63.6390      0.490600        2.0440        1.0340     6622.5166
       516.0264       12.3740      0.024000      152.7270      475.9620       71.0190      0.516600        2.0720        1.0320     6547.6304
       516.1788       12.3720      0.016000      155.9480      485.5390       78.6760      0.535800        2.0930        1.0210     6412.3940
       516.3312       12.3730      0.016000      159.7210      492.0040       82.7760      0.523300        2.1050        1.0110     6260.9180
       516.4836       12.3730      0.019000      160.3810      494.7370       83.2720      0.508900        2.1070        1.0120     6235.1528
       516.6360       12.3700      0.021000      161.0820      494.5250       82.5000      0.536800        2.1060        1.0230     6208.0181
       516.7884       12.3670      0.019000      160.5180      492.7340       81.0470      0.565700        2.1040        1.0470     6229.8306
       516.9408       12.3650      0.016000      160.7420      490.4690       79.4670      0.542600        2.1020        1.0750     6221.1494
       517.0932       12.3670      0.016000      160.0710      488.2070       79.2160      0.498300        2.1030        1.0960     6247.2280
       517.2456       12.3720      0.019000      157.7930      485.4870       79.8790      0.472300        2.1070        1.1030     6337.4170
