~Version Information Block
VERS .                 2.00:  CWLS LOG ASCII STANDARD - VERSION 2.00
WRAP .                  YES:  Multiple lines per depth step
~Well Information Block
#MNEM.UNIT        Data Type   Information
#---------- ----------------  -----------
STRT .F                3000:  START DEPTH
STOP .F                3120:  STOP DEPTH
STEP .F                 0.5:  STEP
NULL .              -999.25:  NULL VALUE
COMP .            Ewing Oil:  COMPANY
WELL .         Sue Ellen #4:  WELL
FLD  .      SouthFork Ranch:  FIELD
LOC  .                Plano:  LOCATION
CNTY .               Collin:  COUNTY
STAT .                Texas:  STATE
CTRY .                   US:  COUNTRY
API  .           1234512345:  API NUMBER
SRVC .  Unified Development:  SERVICE COMPANY
DATE .            1/11/1988:  LOG DATE
~Curve Information Block
#MNEM.UNIT         API CODE   Curve Description
#---------- ----------------  -----------------
DEPTH.F                    :  Depth
AO10 .OHMM                 :  ShalRes    NA
AO20 .OHMM                 :  ShalRes    NA
AO30 .OHMM                 :  MedRes     NA
AO60 .OHMM                 :  MedRes     NA
AO90 .OHMM                 :  XDeepRes   NA
AT10 .OHMM                 :  ShalRes    NA
AT20 .OHMM                 :  ShalRes    NA
AT30 .OHMM                 :  MedRes     NA
AT60 .OHMM                 :  MedRes     NA
AT90 .OHMM                 :  XDeepRes   NA
C_POR.%                    :  
C_RHOB.G/C3                 :  
C_RHOG.G/C3                 :  
C_SW .%                    :  
DT   .US/F                 :  Sonic
DT1R .US/F                 :  ShearSonic NA
DT2R .US/F                 :  ShearSonic NA
DT4P .US/F                 :  Sonic      NA
DT4S .US/F                 :  ShearSonic NA
DTCO .US/F                 :  Sonic      NA
NPHI .V/V                  :  Neutron    NA
NPOR .V/V                  :  Neutron    NA
PEFZ .B/E                  :  PEF        HRDD                              :NA
PHIT_311 .DEC              :  PhiT
RDEEP.OHMM                 :  XDeepRes   NA
RHO8 .G/C3                 :  Density    NA
RHOB .G/C3                 :  Density
RHOZ .G/C3                 :  Density    NA
SP   .MV                   :  SP         NA
SW_311.DEC                 :  Sw   
TEMP .F                    :  Temp
~Parameter Information Block
#MNEM.UNIT            Value   Description
#---------- ----------------  -----------
JUNK .                 0.28:  rifle range
RW   .OHMM             0.04:  Resistivity of Water
LATI .            34/34/4.4:  Latitude {DEG/MIN/SEC}
LONG .         -102/20/44.4:  Longitude {DEG/MIN/SEC}
B_JUNK.                   2:  B Factor
A_JUNK.                   2:  Saturation Speed
WELL_NAME.          well #4:  Well Name
~Other Information Block
~Ascii Log Data
# ...
         3063.0
        9.9576        9.7710       10.0885       10.3483       10.1310
        8.9701        8.5498        8.9467        9.3430        8.9360
     -999.2500     -999.2500     -999.2500     -999.2500       79.8842
      159.1250      155.6280       79.8842      149.7080       79.8842
      0.230400      0.205000        3.1930      0.076657        8.9360
        2.6300        2.6300        2.6299     -201.1250        0.9758
      160.0000
         3063.5
        7.5578        7.5661        7.9762        8.1189        7.9845
        8.5777        8.1623        8.5018        8.7269        8.5107
     -999.2500     -999.2500     -999.2500     -999.2500       79.5308
      156.9280      157.2380       79.5308      150.3440       79.5308
      0.220800      0.211500        3.1393      0.075783        8.5107
        2.6292        2.6292        2.6364     -201.0000        1.0000
      160.0000
         3064.0
        8.8648        8.1546        8.1723        8.3476        8.2039
        9.0804        8.6194        8.8693        9.1206        8.8598
     -999.2500     -999.2500     -999.2500     -999.2500       79.3757
      157.9830      151.1830       79.3757      151.2640       79.3757
      0.209400      0.236000        3.1347      0.075398        8.8598
        2.6380        2.6380        2.6376     -200.8750        0.9963
      160.0000
         3064.5
       12.4484       11.5745       12.1268       12.2176       11.9129
        9.8030        9.2804        9.7506        9.7381        9.6158
     -999.2500     -999.2500     -999.2500     -999.2500       79.4371
      158.5990      153.1630       79.4371      152.1850       79.4371
      0.200100      0.178600        3.1518      0.075551        9.6158
        2.6536        2.6536        2.6404     -201.3120        0.9545
      160.0000
         3065.0
        9.0270        8.7824        9.0314        9.0708        8.9000
        9.0456        8.8811        9.2615        9.3152        9.2020
     -999.2500     -999.2500     -999.2500     -999.2500       79.8778
      155.9000      152.7730       79.8778      155.7110       79.8778
      0.205300      0.192800        3.1796      0.076641        9.2020
        2.6483        2.6483        2.6487     -200.5620        0.9618
      160.0000
         3065.5
        8.4251        8.0804        8.4465        8.6119        8.4576
        8.7529        8.3121        8.6164        8.8250        8.5561
     -999.2500     -999.2500     -999.2500     -999.2500       79.5422
      156.1870      153.3540       79.5422      152.3100       79.5422
      0.214700      0.231400        3.1815      0.075811        8.5561
        2.6582        2.6582        2.6603     -201.6880        1.0000
      160.0000
         3066.0
        8.6685        8.0576        8.3841        8.5915        8.4376
        8.7059        8.1016        8.4725        8.7310        8.4385
     -999.2500     -999.2500     -999.2500     -999.2500       80.2112
      157.3800      155.5280       80.2112      154.9990       80.2112
      0.224300      0.212500        3.1975      0.077463        8.4385
        2.6639        2.6639        2.6581     -201.8120        0.9937
      160.0000
         3066.5
        8.6222        7.9849        8.3468        8.8724        8.7079
        8.6176        8.0942        8.4146        8.8219        8.4284
     -999.2500     -999.2500     -999.2500     -999.2500       80.5130
      158.5040      157.0920       80.5130      153.6890       80.5130
      0.223000      0.208600        3.2174      0.078205        8.4284
        2.6629        2.6629        2.6496     -201.5620        0.9849
      160.0000
         3067.0
        8.2799        7.7842        8.1872        8.4777        8.3270
        8.7500        8.2745        8.6527        8.9352        8.6593
     -999.2500     -999.2500     -999.2500     -999.2500       80.3641
      158.3620      156.6600       80.3641      155.9530       80.3641
      0.217500      0.219000        3.2433      0.077839        8.6593
        2.6414        2.6414        2.6410     -202.3750        0.9762
      160.0000
         3067.5
       10.1675        9.5230        9.9748       10.5257       10.2947
        9.0518        8.5246        8.9775        9.2133        8.9862
     -999.2500     -999.2500     -999.2500     -999.2500       80.2843
      158.5690      158.4910       80.2843      150.8890       80.2843
      0.218200      0.203400        3.2944      0.077643        8.9862
        2.6285        2.6285        2.6343     -201.9380        0.9607
      160.0000
         3068.0
        8.5049        8.0234        8.3996        8.6250        8.4694
        8.7114        8.3324        8.6745        8.9200        8.6873
     -999.2500     -999.2500     -999.2500     -999.2500       79.3442
      158.2780      156.3450       79.3442      154.9400       79.3442
      0.208900      0.197000        3.3350      0.075320        8.6873
        2.6515        2.6515        2.6380     -201.8120        1.0000
      160.0000
         3068.5
        8.2895        7.9916        8.2989        8.4917        8.3415
        8.5019        8.1007        8.3888        8.6174        8.4122
     -999.2500     -999.2500     -999.2500     -999.2500       79.6749
      158.2110      155.1880       79.6749      155.2310       79.6749
      0.220400      0.218000        3.3636      0.076140        8.4122
        2.6488        2.6488        2.6468     -202.3750        1.0000
      160.0000
         3069.0
        8.5146        8.0941        8.3222        8.4890        8.3392
        8.5344        8.1211        8.4174        8.6850        8.4456
     -999.2500     -999.2500     -999.2500     -999.2500       79.5198
      158.1280      156.7860       79.5198      154.2490       79.5198
      0.218300      0.206300        3.3716      0.075756        8.4456
        2.6649        2.6649        2.6548     -202.3750        1.0000
      160.0000
         3069.5
        8.6028        8.2745        8.4563        8.6251        8.4710
        8.6504        8.2726        8.5193        8.8400        8.5477
     -999.2500     -999.2500     -999.2500     -999.2500       79.6667
      153.9100      153.1400       79.6667      152.5770       79.6667
      0.231700      0.229600        3.3610      0.076120        8.5477
        2.6690        2.6690        2.6576     -202.5620        1.0000
      160.0000
         3070.0
        8.9037        8.5154        8.6279        8.7996        8.6397
        9.0547        8.6347        8.8586        9.2798        8.8926
     -999.2500     -999.2500     -999.2500     -999.2500       78.9429
      152.8330      150.3650       78.9429      147.9380       78.9429
      0.231600      0.225000        3.3329      0.074322        8.8926
        2.6556        2.6556        2.6558     -202.6880        1.0000
      160.0000
         3070.5
        9.7893        9.2951        9.5012        9.7607        9.5644
        9.7115        9.2487        9.4382        9.7883        9.4512
     -999.2500     -999.2500     -999.2500     -999.2500       76.9915
      149.4490      148.7050       76.9915      144.9100       76.9915
      0.222300      0.215000        3.2767      0.069415        9.4512
        2.6750        2.6750        2.6582     -202.9380        1.0000
      160.0000
         3071.0
       10.8805       10.1485       10.7244       11.1233       10.8751
       10.4161        9.8140       10.2948       10.5200       10.1650
     -999.2500     -999.2500     -999.2500     -999.2500       75.6398
      147.6260      146.1510       75.6398      143.4770       75.6398
      0.195000      0.198900        3.1984      0.065971       10.1650
        2.6678        2.6678        2.6610     -203.1880        1.0000
      160.0000
         3071.5
       10.7303        9.8547       10.5343       11.0050       10.7593
       11.4413       10.5366       10.9912       11.3974       10.9082
     -999.2500     -999.2500     -999.2500     -999.2500       75.6574
      146.3390      146.6290       75.6574      143.6280       75.6574
      0.171600      0.158500        3.1220      0.066016       10.9082
        2.6645        2.6645        2.6651     -202.1250        1.0000
      160.0000
