~Version Information Block
VERS .                 2.00:  CWLS LOG ASCII STANDARD - VERSION 2.00
WRAP .                   NO:  One line per depth step
~Well Information Block
#MNEM.UNIT        Data Type   Information
#---------- ----------------  -----------
STRT .M            500.0244:  START DEPTH
STOP .M            620.1156:  STOP DEPTH
STEP .M              0.1524:  STEP
NULL .              -999.25:  NULL VALUE
COMP .                     :  COMPANY
WELL .               WELL#2:  WELL
~Curve Information Block
#MNEM.UNIT         API CODE   Curve Description
#---------- ----------------  -----------------
DEPTH.M                    :  Measured Depth
CAL  .IN            UNKNOWN:  CAL:EXTERNAL:rC:NONE:v1
DRHO .G/C3          UNKNOWN:  ZCOR:EXTERNAL:rC:NONE:v1
DT   .US/F          UNKNOWN:  DT::rC:NONE:v1
DTS  .US/F          UNKNOWN:  DTS:EXTERNAL:rC:NONE:v1
GR   .GAPI          UNKNOWN:  GR:EXTERNAL:rC:NONE:v1
NPHI .V/V           UNKNOWN:  NPHI_NORM:v0
RHOB .G/C3          UNKNOWN:  Z3EN:EXTERNAL:rC:NONE:v1
RT   .OHMM          UNKNOWN:  M3RX:EXTERNAL:rC:NONE:v1
VP   .FT/S                 :  Output Velocity
~Parameter Information Block
#MNEM.UNIT            Value   Description
#---------- ----------------  -----------
ELEV_TYPE.                   KB:  ELEV TYPE
LAT  .             100.8026:  LATITUDE
LON  .             100.4617:  LONGITUDE
~Other Information Block
~A        DEPTH            CAL           DRHO             DT            DTS             GR           NPHI           RHOB             RT             VP
# ...
       534.7716       12.3710      0.027000      137.5590      363.3430       63.6720      0.411600        2.1060        1.4320     7269.6074
       534.9240       12.3720      0.028000      137.4310      363.5980       62.4490      0.410600        2.1100        1.4330     7276.3789
       535.0764       12.3740      0.028000      137.3510      363.0120       61.8190      0.423100        2.1130        1.4360     7280.6167
       535.2288       12.3730      0.028000      137.4850      362.8940       62.3870      0.447200        2.1120        1.4400     7273.5205
       535.3812       12.3680      0.027000      137.6330      362.7200       63.5440      0.472300        2.1110        1.4410     7265.6997
       535.5336       12.3670      0.026000      137.0440      362.6920       64.1800      0.480900        2.1100        1.4400     7296.9263
       535.6860       12.3690      0.024000      136.9720      362.5430       63.8840      0.465500        2.1080        1.4370     7300.7622
       535.8384       12.3730      0.023000      137.0150      362.7770       63.8150      0.428900        2.1060        1.4350     7298.4712
       535.9908       12.3770      0.022000      137.1240      362.9320       64.0120      0.400000        2.1040        1.4340     7292.6699
       536.1432       12.3780      0.020000      137.0570      363.1270       64.0950      0.402900        2.1010        1.4320     7296.2339
       536.2956       12.3750      0.019000      137.3160      362.9640       63.8430      0.432700        2.0980        1.4280     7282.4727
       536.4480       12.3710      0.022000      137.5280      362.7440       63.5080      0.453000        2.1000        1.4240     7271.2466
       536.6004       12.3680      0.024000      137.3290      362.8940       63.2370      0.440500        2.1030        1.4220     7281.7832
       536.7528       12.3660      0.024000      137.3380      362.9080       63.2910      0.415400        2.1030        1.4220     7281.3062
       536.9052       12.3660      0.022000      137.2210      362.7150       63.3500      0.403800        2.1000        1.4200     7287.5146
       537.0576       12.3680      0.023000      137.5330      362.7170       63.0420      0.408700        2.0950        1.4150     7270.9819
       537.2100       12.3700      0.024000      137.7510      362.4710       62.6630      0.414400        2.0910        1.4080     7259.4751
       537.3624       12.3700      0.026000      137.9920      362.2440       63.0650      0.407700        2.0910        1.4010     7246.7969
       537.5148       12.3710      0.025000      138.1430      362.5490       64.2250      0.391300        2.0930        1.3980     7238.8755
       537.6672       12.3740      0.023000      138.2730      362.4520       64.6960      0.378800        2.0960        1.4040     7232.0703
       537.8196       12.3780      0.021000      137.9520      362.4570       64.2870      0.387500        2.0990        1.4160     7248.8984
       537.9720       12.3810      0.022000      138.1300      362.2430       64.1980      0.414400        2.1020        1.4270     7239.5566
       538.1244       12.3840      0.023000      138.0120      361.9540       64.7550      0.434700        2.1040        1.4290     7245.7471
       538.2768       12.3830      0.024000      138.0820      361.9420       65.2980      0.427900        2.1050        1.4250     7242.0737
       538.4292       12.3780      0.024000      137.8400      361.5670       65.6460      0.408700        2.1010        1.4170     7254.7886
       538.5816       12.3740      0.023000      137.9710      361.7670       65.3050      0.404800        2.0920        1.4060     7247.9004
       538.7340       12.3730      0.022000      138.3210      361.0450       64.3770      0.421200        2.0840        1.3910     7229.5601
       538.8864       12.3760      0.024000      138.3950      360.4440       63.8790      0.434700        2.0810        1.3720     7225.6943
       539.0388       12.3770      0.027000      137.8410      360.5640       64.6080      0.434700        2.0850        1.3540     7254.7354
       539.1912       12.3730      0.026000      137.9210      360.9850       65.4660      0.427900        2.0920        1.3480     7250.5273
       539.3436       12.3690      0.022000      138.4710      360.6160       64.9200      0.418300        2.0950        1.3610     7221.7290
       539.4960       12.3710      0.017000      138.5250      361.2180       63.5750      0.412500        2.0940        1.3840     7218.9141
       539.6484       12.3760      0.018000      138.3980      359.5860       62.9100      0.415400        2.0940        1.3980     7225.5381
       539.8008       12.3790      0.025000      138.5490      359.1410       63.2320      0.425000        2.0990        1.4000     7217.6631
       539.9532       12.3790      0.030000      138.2470      358.2220       63.6160      0.430800        2.1010        1.3960     7233.4302
       540.1056       12.3790      0.026000      138.8190      357.8930       64.0520      0.420200        2.0950        1.3900     7203.6250
       540.2580       12.3790      0.020000      141.3550      356.1680       64.0830      0.404800        2.0850        1.3770     7074.3872
       540.4104       12.3790      0.017000      143.0320      355.0740       63.4210      0.401900        2.0720        1.3530     6991.4424
       540.5628       12.3780      0.017000      142.1380      355.0840       63.0450      0.401900        2.0580        1.3210     7035.4165
       540.7152       12.3740      0.017000      141.2710      355.7840       63.5260      0.391300        2.0440        1.2840     7078.5938
       540.8676       12.3740      0.023000      142.0870      356.9290       63.8430      0.385500        2.0430        1.2470     7037.9414
       541.0200       12.3760      0.032000      140.6500      358.1360       63.6680      0.386500        2.0570        1.2330     7109.8477
       541.1724       12.3740      0.035000      142.1280      359.2610       64.7140      0.395200        2.0800        1.2640     7035.9111
       541.3248       12.3680      0.032000      140.2570      358.5490       66.6170      0.415400        2.1020        1.3380     7129.7686
       541.4772       12.3650      0.032000      141.1280      361.4750       67.6510      0.438500        2.1210        1.4170     7085.7656
       541.6296       12.3670      0.034000      141.3380      362.3430       67.8450      0.448200        2.1330        1.4680     7075.2383
       541.7820       12.3710      0.032000      142.2160      364.6250       68.1470      0.449100        2.1320        1.4910     7031.5576
       541.9344       12.3720      0.027000      142.2610      364.7700       67.8020      0.453000        2.1220        1.4960     7029.3335
       542.0868       12.3710      0.023000      143.2270      365.0950       66.3020      0.453000        2.1090        1.4820     6981.9233
       542.2392       12.3680      0.020000      146.3260      366.1630       65.0950      0.458800        2.0880        1.4400     6834.0552
       542.3916       12.3660      0.017000      149.4490      369.8020       66.4810      0.480900        2.0620        1.3690     6691.2456
       542.5440       12.3660      0.017000      153.3770      404.4910       70.5770      0.505000        2.0460        1.2790     6519.8823
       542.6964       12.3670      0.019000      157.6300      415.0220       75.8580      0.513700        2.0450        1.1860     6343.9697
       542.8488       12.3710      0.022000      161.3060      434.1420       81.4050      0.523300        2.0540        1.1150     6199.3975
       543.0012       12.3710      0.022000      164.1930      512.5590       86.0650      0.533900        2.0620        1.0760     6090.3940
       543.1536       12.3670      0.019000      164.6070      528.2200       87.8740      0.531000        2.0650        1.0580     6075.0762
       543.3060       12.3660      0.017000      163.5840      531.8180       87.9330      0.516600        2.0650        1.0400     6113.0674
