~Version Information Block
VERS .                 2.00:  CWLS LOG ASCII STANDARD - VERSION 2.00
WRAP .                  YES:  Multiple lines per depth step
~Well Information Block
#MNEM.UNIT        Data Type   Information
#---------- ----------------  -----------
STRT .F                3000:  START DEPTH
STOP .F                3120:  STOP DEPTH
STEP .F                 0.5:  STEP
NULL .              -999.25:  NULL VALUE
COMP .            Ewing Oil:  COMPANY
WELL .         Sue Ellen #4:  WELL
FLD  .      SouthFork Ranch:  FIELD
LOC  .                Plano:  LOCATION
CNTY .               Collin:  COUNTY
STAT .                Texas:  STATE
CTRY .                   US:  COUNTRY
API  .           1234512345:  API NUMBER
SRVC .  Unified Development:  SERVICE COMPANY
DATE .            1/11/1988:  LOG DATE
~Curve Information Block
#MNEM.UNIT         API CODE   Curve Description
#---------- ----------------  -----------------
DEPTH.F                    :  Depth
AO10 .OHMM                 :  ShalRes    NA
AO20 .OHMM                 :  ShalRes    NA
AO30 .OHMM                 :  MedRes     NA
AO60 .OHMM                 :  MedRes     NA
AO90 .OHMM                 :  XDeepRes   NA
AT10 .OHMM                 :  ShalRes    NA
AT20 .OHMM                 :  ShalRes    NA
AT30 .OHMM                 :  MedRes     NA
AT60 .OHMM                 :  MedRes     NA
AT90 .OHMM                 :  XDeepRes   NA
C_POR.%                    :  
C_RHOB.G/C3                 :  
C_RHOG.G/C3                 :  
C_SW .%                    :  
DT   .US/F                 :  Sonic
DT1R .US/F                 :  ShearSonic NA
DT2R .US/F                 :  ShearSonic NA
DT4P .US/F                 :  Sonic      NA
DT4S .US/F                 :  ShearSonic NA
DTCO .US/F                 :  Sonic      NA
NPHI .V/V                  :  Neutron    NA
NPOR .V/V                  :  Neutron    NA
PEFZ .B/E                  :  PEF        HRDD                              :NA
PHIT_311 .DEC              :  PhiT
RDEEP.OHMM                 :  XDeepRes   NA
RHO8 .G/C3                 :  Density    NA
RHOB .G/C3                 :  Density
RHOZ .G/C3                 :  Density    NA
SP   .MV                   :  SP         NA
SW_311.DEC                 :  Sw   
TEMP .F                    :  Temp
~Parameter Information Block
#MNEM.UNIT            Value   Description
#---------- ----------------  -----------
JUNK .                 0.28:  rifle range
RW   .OHMM             0.04:  Resistivity of Water
LATI .            34/34/4.4:  Latitude {DEG/MIN/SEC}
LONG .         -102/20/44.4:  Longitude {DEG/MIN/SEC}
B_JUNK.                   2:  B Factor
A_JUNK.                   2:  Saturation Speed
WELL_NAME.          well #4:  Well Name
~Other Information Block
~Ascii Log Data
# ...
         3036.0
        7.6845        7.4227        7.7161        7.6738        7.5633
        7.7058        7.4376        7.7026        7.8821        7.7509
     -999.2500     -999.2500     -999.2500     -999.2500       82.7407
      162.9040      161.8880       82.7407      156.2710       82.7407
      0.215300      0.216000        3.3307      0.083600        7.7509
        2.6729        2.6729        2.6648     -197.1250        0.9607
      160.0000
         3036.5
        8.6429        8.1030        8.3435        8.5286        8.3937
        8.3070        8.0056        8.3233        8.5152        8.3974
     -999.2500     -999.2500     -999.2500     -999.2500       83.9142
      161.9350      163.7770       83.9142      159.3110       83.9142
      0.212000      0.178400        3.3536      0.086383        8.3974
        2.6592        2.6592        2.6570     -197.1880        0.8933
      160.0000
         3037.0
        8.3091        7.9466        8.5773        8.6943        8.5562
        7.9534        7.6732        8.0445        8.2208        8.0996
     -999.2500     -999.2500     -999.2500     -999.2500       83.8444
      166.5040      168.2260       83.8444      162.8160       83.8444
      0.223300      0.195200        3.3968      0.086219        8.0996
        2.6671        2.6671        2.6493     -197.7500        0.9113
      160.0000
         3037.5
        7.0746        6.8986        7.1348        7.5405        7.4373
        7.2392        7.0214        7.2419        7.4770        7.3283
     -999.2500     -999.2500     -999.2500     -999.2500       84.0990
      166.5040      168.2260       84.0990      163.0550       84.0990
      0.239600      0.249400        3.4272      0.086818        7.3283
        2.6762        2.6762        2.6562     -197.5000        0.9514
      160.0000
         3038.0
        6.1483        6.0896        6.4087        6.6732        6.5941
        6.7555        6.5957        6.7603        6.9305        6.8377
     -999.2500     -999.2500     -999.2500     -999.2500       84.5020
      168.0890      166.6520       84.5020      162.3600       84.5020
      0.242700      0.244000        3.4358      0.087761        6.8377
        2.6683        2.6683        2.6604     -198.0000        0.9744
      160.0000
         3038.5
        7.0964        6.9181        7.0446        7.2371        7.1460
        6.9433        6.8217        7.0990        7.2863        7.1869
     -999.2500     -999.2500     -999.2500     -999.2500       84.0531
      165.5650      163.7320       84.0531      160.7570       84.0531
      0.239000      0.240400        3.4072      0.086710        7.1869
        2.6478        2.6478        2.6577     -198.3750        0.9619
      160.0000
         3039.0
        7.4435        7.3432        7.4304        7.6501        7.5487
        7.5456        7.2817        7.5403        7.7400        7.6402
     -999.2500     -999.2500     -999.2500     -999.2500       83.7335
      162.3640      161.9220       83.7335      157.4230       83.7335
      0.232100      0.218400        3.3740      0.085957        7.6402
        2.6671        2.6671        2.6510     -198.0620        0.9411
      160.0000
         3039.5
        8.2606        7.8148        8.1291        8.3800        8.2598
        8.1565        7.8034        8.0601        8.3025        8.1879
     -999.2500     -999.2500     -999.2500     -999.2500       81.6552
      160.4610      160.0010       81.6552      154.0660       81.6552
      0.231700      0.211200        3.3208      0.080989        8.1879
        2.6569        2.6569        2.6560     -199.0620        0.9649
      160.0000
         3040.0
        8.8943        8.4468        8.8151        9.0327        8.8874
        8.8084        8.3828        8.7896        9.0065        8.8157
     -999.2500     -999.2500     -999.2500     -999.2500       80.8010
      159.5130      158.8290       80.8010      151.8700       80.8010
      0.216100      0.214300        3.3057      0.078910        8.8157
        2.6599        2.6599        2.6605     -199.3750        0.9544
      160.0000
         3040.5
        8.7980        8.3696        9.5438        9.7884        9.6270
        9.1542        8.7261        9.0840        9.3505        9.1293
     -999.2500     -999.2500     -999.2500     -999.2500       80.2147
      158.7640      158.0860       80.2147      153.9780       80.2147
      0.205200      0.203800        3.3085      0.077472        9.1293
        2.6513        2.6513        2.6605     -199.1250        0.9553
      160.0000
         3041.0
        9.4397        9.0035        8.9938        9.2603        9.1157
        9.3083        8.8402        9.2736        9.5135        9.2823
     -999.2500     -999.2500     -999.2500     -999.2500       79.9173
      158.3490      154.6220       79.9173      152.2910       79.9173
      0.191400      0.189900        3.3787      0.076739        9.2823
        2.6740        2.6740        2.6557     -199.7500        0.9564
      160.0000
         3041.5
        9.1221        8.6992        9.1789        9.4517        9.3046
        9.1456        8.6831        9.1600        9.3538        9.1473
     -999.2500     -999.2500     -999.2500     -999.2500       80.0444
      157.6120      157.0690       80.0444      152.9370       80.0444
      0.196800      0.185000        3.5088      0.077053        9.1473
        2.6874        2.6874        2.6639     -200.1250        0.9595
      160.0000
         3042.0
        8.8984        8.4040        8.9226        9.1748        9.0377
        8.9179        8.4495        8.9365        9.1684        8.9773
     -999.2500     -999.2500     -999.2500     -999.2500       79.9933
      158.1850      157.8850       79.9933      152.8700       79.9933
      0.202000      0.204000        3.6239      0.076927        8.9773
        2.7486        2.7486        2.6821     -200.6250        0.9701
      160.0000
         3042.5
        8.8240        8.2505        8.7183        8.9398        8.8104
        8.7493        8.3529        8.7350        9.0015        8.7814
     -999.2500     -999.2500     -999.2500     -999.2500       79.8401
      158.6040      159.1360       79.8401      156.5160       79.8401
      0.216400      0.207500        3.6500      0.076548        8.7814
        2.7088        2.7088        2.6881     -200.1880        0.9858
      160.0000
         3043.0
        8.4273        8.1321        8.3595        8.5345        8.4168
        8.4902        8.1049        8.4850        8.7553        8.5508
     -999.2500     -999.2500     -999.2500     -999.2500       80.5239
      158.9940      159.4970       80.5239      155.2540       80.5239
      0.219700      0.213700        3.5851      0.078232        8.5508
        2.6527        2.6527        2.6728     -200.5000        0.9775
      160.0000
         3043.5
        8.1697        7.8410        8.0349        8.2297        8.1216
        8.2379        7.9178        8.2706        8.5273        8.3339
     -999.2500     -999.2500     -999.2500     -999.2500       80.2927
      159.0880      158.8940       80.2927      154.7940       80.2927
      0.231200      0.209900        3.5447      0.077664        8.3339
        2.6718        2.6718        2.6570     -201.3120        0.9973
      160.0000
         3044.0
        8.4847        8.0222        8.3135        8.5733        8.4584
        8.4699        8.0393        8.4007        8.6546        8.4943
     -999.2500     -999.2500     -999.2500     -999.2500       81.1576
      160.0380      159.8390       81.1576      154.3350       81.1576
      0.229900      0.224000        3.5291      0.079780        8.4943
        2.6973        2.6973        2.6520     -201.1880        0.9617
      160.0000
         3044.5
        8.4116        7.9784        8.1846        8.3743        8.2652
        8.6246        8.2363        8.5671        8.8615        8.6710
     -999.2500     -999.2500     -999.2500     -999.2500       80.2499
      158.6830      158.4250       80.2499      155.6810       80.2499
      0.239600      0.217300        3.4688      0.077559        8.6710
        2.6539        2.6539        2.6538     -201.6250        0.9791
      160.0000
