~Version Information Block
VERS .                 2.00:  CWLS LOG ASCII STANDARD - VERSION 2.00
WRAP .                   NO:  One line per depth step
~Well Information Block
#MNEM.UNIT        Data Type   Information
#---------- ----------------  -----------
STRT .F                7800:  START DEPTH
STOP .F                8368:  STOP DEPTH
STEP .F                0.25:  STEP
NULL .              -999.25:  NULL VALUE
WELL .                 TEST:  WELL
~Curve Information Block
#MNEM.UNIT         API CODE   Curve Description
#---------- ----------------  -----------------
DEPTH.F                    :  
AT10 .OHMM                 :  Loaded
AT30 .OHMM                 :  Loaded
AT90 .OHMM                 :  Loaded
CALI .IN                   :  Loaded
DTCO .US/F                 :  Filled log.
DTSM .US/F                 :  Loaded
DT_ED.US/F                 :  Edited log.
GR   .GAPI                 :  
NPHI .V/V                  :  Loaded
RHOB .G/C3                 :  Loaded
~Other Information Block
~A        DEPTH           AT10           AT30           AT90           CALI           DTCO           DTSM          DT_ED             GR           NPHI           RHOB 
      7800.0000         2.4826         1.7344         1.5953        12.9770       108.0620       238.7940       108.0620        62.0883         0.4490         2.2932 
      7800.2500         2.7559         1.8830         1.7184        13.0726       108.2330       239.1700       108.2330        62.3589         0.4295         2.3154 
      7800.5000         3.0291         2.0620         1.8789        13.1195       108.1950       240.5720       108.1950        61.3855         0.4090         2.3316 
      7800.7500         3.2938         2.2390         2.0410        13.0875       108.3330       242.9300       108.3330        59.8253         0.3947         2.3341 
      7801.0000         3.5585         2.4142         2.2046        12.9765       108.6450       246.2440       108.6450        57.6785         0.3865         2.3227 
      7801.2500         3.7274         2.5457         2.2972        12.8778       112.1800       252.7280       112.1800        56.4008         0.3854         2.2989 
      7801.5000         3.8963         2.6333         2.3189        12.7912       118.9400       262.3820       118.9400        55.9922         0.3914         2.2626 
      7801.7500         4.0058         2.6912         2.3046        12.7005       125.5720       275.6690       125.5720        54.6407         0.3959         2.2264 
      7802.0000         4.1152         2.7192         2.2545        12.6057       132.0760       292.5920       132.0760        52.3465         0.3988         2.1903 
      7802.2500         4.2026         2.7506         2.2325        12.5030       135.7100       308.3970       135.7100        50.6464         0.4150         2.1648 
      7802.5000         4.2899         2.7853         2.2386        12.3925       136.4740       323.0830       136.4740        49.5405         0.4446         2.1500 
      7802.7500         4.2979         2.8095         2.2579        12.4158       136.8280       331.2020       136.8280        49.2455         0.4620         2.1458 
      7803.0000         4.3058         2.8234         2.2904        12.5729       136.7700       332.7530       136.7700        49.7616         0.4671         2.1522 
      7803.2500         4.1781         2.7936         2.2949        12.7150       136.1910       329.4620       136.1910        50.3402         0.4744         2.1570 
      7803.5000         4.0504         2.7202         2.2716        12.8424       135.0900       321.3280       135.0900        50.9813         0.4837         2.1603 
      7803.7500         3.8825         2.6329         2.2427        12.9138       133.4170       311.9330       133.4170        52.4273         0.4760         2.1602 
      7804.0000         3.7147         2.5316         2.2083        12.9294       131.1700       301.2780       131.1700        54.6782         0.4512         2.1568 
      7804.2500         3.6237         2.4617         2.2003        12.9527       129.7700       295.4290       129.7700        55.6558         0.4405         2.1559 
      7804.5000         3.5327         2.4232         2.2188        12.9835       129.2160       294.3860       129.2160        55.3600         0.4438         2.1574 
      7804.7500         3.5093         2.4069         2.2316        12.9788       129.2710       296.0960       129.2710        54.6716         0.4354         2.1632 
      7805.0000         3.4860         2.4128         2.2385        12.9384       129.9340       300.5570       129.9340        53.5904         0.4153         2.1733 
      7805.2500         3.4524         2.4095         2.2113        12.8965       130.4250       302.7340       130.4250        52.3796         0.4103         2.1786 
      7805.5000         3.4188         2.3971         2.1500        12.8529       130.7450       302.6280       130.7450        51.0392         0.4205         2.1791 
      7805.7500         3.3368         2.3649         2.0875        12.8202       131.1200       301.5360       131.1200        52.5071         0.4177         2.1732 
      7806.0000         3.2549         2.3131         2.0237        12.7983       131.5500       299.4610       131.5500        56.7837         0.4021         2.1610 
      7806.2500         3.1360         2.2475         1.9761        12.6819       132.0530       297.1900       132.0530        58.2266         0.3987         2.1467 
      7806.5000         3.0172         2.1682         1.9446        12.4710       132.6300       294.7260       132.6300        56.8359         0.4076         2.1305 
      7806.7500         2.8793         2.0815         1.9123        12.3666       133.0530       291.4750       133.0530        56.7226         0.4084         2.1204 
      7807.0000         2.7413         1.9874         1.8792        12.3689       133.3200       287.4380       133.3200        57.8866         0.4011         2.1163 
      7807.2500         2.6089         1.8991         1.8457        12.3919       133.0980       283.4170       133.0980        58.9427         0.3952         2.1207 
      7807.5000         2.4765         1.8166         1.8119        12.4356       132.3850       279.4140       132.3850        59.8909         0.3906         2.1334 
      7807.7500         2.3710         1.7472         1.7891        12.4406       131.9790       277.4210       131.9790        63.0430         0.3874         2.1486 
      7808.0000         2.2655         1.6909         1.7773        12.4070       131.8790       277.4360       131.8790        68.3988         0.3855         2.1663 
      7808.2500         2.1837         1.6425         1.7629        12.4642       130.6340       275.9620       130.6340        71.6407         0.3885         2.1841 
      7808.5000         2.1020         1.6019         1.7460        12.6124       128.2450       272.9990       128.2450        72.7685         0.3964         2.2018 
      7808.7500         2.0303         1.5619         1.7090        12.6974       125.8910       269.8010       125.8910        73.7343         0.4070         2.2188 
      7809.0000         1.9586         1.5223         1.6519        12.7192       123.5740       266.3680       123.5740        74.5381         0.4203         2.2352 
      7809.2500         1.9035         1.4867         1.5957        12.6796       121.6500       263.8770       121.6500        72.6845         0.4368         2.2499 
      7809.5000         1.8485         1.4551         1.5403        12.5788       120.1220       262.3270       120.1220        68.1738         0.4565         2.2631 
      7809.7500         1.8367         1.4385         1.5140        12.5124       119.2980       262.7160       119.2980        66.3790         0.4650         2.2723 
      7810.0000         1.8249         1.4369         1.5168        12.4805       119.1770       265.0440       119.1770        67.3002         0.4623         2.2776 
      7810.2500         1.8752         1.4584         1.5642        12.4539       119.9530       269.0660       119.9530        67.5818         0.4642         2.2759 
      7810.5000         1.9254         1.5029         1.6561        12.4326       121.6260       274.7820       121.6260        67.2236         0.4707         2.2673 
      7810.7500         2.0185         1.5650         1.7972        12.4487       123.0750       279.5200       123.0750        66.8477         0.4745         2.2550 
      7811.0000         2.1116         1.6446         1.9874        12.5022       124.2990       283.2790       124.2990        66.4541         0.4757         2.2390 
      7811.2500         2.1754         1.7118         2.1693        12.5598       125.4720       284.2170       125.4720        66.2256         0.4737         2.2258 
      7811.5000         2.2392         1.7666         2.3428        12.6214       126.5910       282.3360       126.5910        66.1624         0.4684         2.2153 
      7811.7500         2.2286         1.7880         2.4006        12.6505       126.8240       279.7790       126.8240        66.6922         0.4637         2.2118 
