~Version Information Block
VERS .                 2.00:  CWLS LOG ASCII STANDARD - VERSION 2.00
WRAP .                   NO:  One line per depth step
~Well Information Block
#MNEM.UNIT        Data Type   Information
#---------- ----------------  -----------
STRT .F                7800:  START DEPTH
STOP .F                8368:  STOP DEPTH
STEP .F                0.25:  STEP
NULL .              -999.25:  NULL VALUE
WELL .                 TEST:  WELL
~Curve Information Block
#MNEM.UNIT         API CODE   Curve Description
#---------- ----------------  -----------------
DEPTH.F                    :  
AT10 .OHMM                 :  Loaded
AT30 .OHMM                 :  Loaded
AT90 .OHMM                 :  Loaded
CALI .IN                   :  Loaded
DTCO .US/F                 :  Filled log.
DTSM .US/F                 :  Loaded
DT_ED.US/F                 :  Edited log.
GR   .GAPI                 :  
NPHI .V/V                  :  Loaded
RHOB .G/C3                 :  Loaded
~Other Information Block
~A        DEPTH           AT10           AT30           AT90           CALI           DTCO           DTSM          DT_ED             GR           NPHI           RHOB 
# ...
      7944.0000         1.4484         1.1196         1.0870        12.6690       115.0570       276.6470       115.0570        77.9909         0.4262         2.3360 
      7944.2500         1.4320         1.1059         1.0787        12.6826       115.6090       277.3480       115.6090        77.3849         0.4414         2.3338 
      7944.5000         1.4155         1.0924         1.0704        12.6926       116.2390       278.3790       116.2390        76.5331         0.4634         2.3314 
      7944.7500         1.4069         1.0818         1.0638        12.6933       116.9830       280.1040       116.9830        75.5204         0.4861         2.3271 
      7945.0000         1.3984         1.0741         1.0590        12.6846       117.8400       282.5230       117.8400        74.3468         0.5094         2.3209 
      7945.2500         1.3969         1.0694         1.0554        12.6743       118.9790       284.9950       118.9790        73.3361         0.5166         2.3171 
      7945.5000         1.3954         1.0676         1.0531        12.6627       120.3990       287.5210       120.3990        72.4880         0.5078         2.3156 
      7945.7500         1.3972         1.0673         1.0509        12.6403       121.2800       289.5760       121.2800        72.6679         0.4933         2.3139 
      7946.0000         1.3990         1.0685         1.0487        12.6071       121.6220       291.1640       121.6220        73.8759         0.4730         2.3121 
      7946.2500         1.4003         1.0699         1.0463        12.5847       121.9670       292.0980       121.9670        73.7424         0.4522         2.3124 
      7946.5000         1.4017         1.0714         1.0437        12.5730       122.3160       292.3800       122.3160        72.2675         0.4309         2.3148 
      7946.7500         1.4022         1.0725         1.0414        12.5620       121.8950       292.3250       121.8950        73.6143         0.4166         2.3170 
      7947.0000         1.4028         1.0730         1.0395        12.5520       120.7020       291.9310       120.7020        77.7831         0.4092         2.3188 
      7947.2500         1.4036         1.0728         1.0384        12.5497       119.8880       291.2860       119.8880        79.6002         0.4075         2.3219 
      7947.5000         1.4045         1.0718         1.0380        12.5551       119.4520       290.3910       119.4520        79.0657         0.4116         2.3263 
      7947.7500         1.4053         1.0706         1.0385        12.5660       119.3190       289.4860       119.3190        78.3460         0.4256         2.3297 
      7948.0000         1.4061         1.0694         1.0398        12.5823       119.4890       288.5700       119.4890        77.4412         0.4496         2.3321 
      7948.2500         1.4073         1.0695         1.0423        12.6037       119.3560       287.8220       119.3560        77.1864         0.4677         2.3314 
      7948.5000         1.4085         1.0709         1.0459        12.6301       118.9190       287.2440       118.9190        77.5814         0.4798         2.3277 
      7948.7500         1.4101         1.0731         1.0498        12.6444       119.1460       287.1780       119.1460        77.1064         0.4872         2.3231 
      7949.0000         1.4116         1.0761         1.0541        12.6465       120.0360       287.6240       120.0360        75.7614         0.4897         2.3174 
      7949.2500         1.4128         1.0786         1.0574        12.6533       120.4240       288.1550       120.4240        74.6710         0.4852         2.3119 
      7949.5000         1.4140         1.0808         1.0598        12.6648       120.3140       288.7720       120.3140        73.8350         0.4736         2.3064 
      7949.7500         1.4163         1.0828         1.0608        12.6729       120.2110       289.4140       120.2110        73.7811         0.4721         2.3032 
      7950.0000         1.4186         1.0846         1.0604        12.6777       120.1160       290.0780       120.1160        74.5093         0.4808         2.3023 
      7950.2500         1.4229         1.0863         1.0591        12.6852       120.4970       290.6120       120.4970        75.0499         0.4818         2.3014 
      7950.5000         1.4272         1.0879         1.0569        12.6954       121.3540       291.0120       121.3540        75.4030         0.4751         2.3005 
      7950.7500         1.4312         1.0889         1.0548        12.7015       121.7150       291.0540       121.7150        75.8850         0.4766         2.3013 
      7951.0000         1.4353         1.0893         1.0527        12.7036       121.5830       290.7380       121.5830        76.4959         0.4863         2.3039 
      7951.2500         1.4360         1.0886         1.0513        12.7050       121.3880       290.1030       121.3880        76.6048         0.4860         2.3061 
      7951.5000         1.4367         1.0870         1.0506        12.7056       121.1320       289.1470       121.1320        76.2116         0.4757         2.3078 
      7951.7500         1.4335         1.0845         1.0502        12.7010       120.7110       288.3230       120.7110        76.1552         0.4754         2.3118 
      7952.0000         1.4304         1.0813         1.0502        12.6911       120.1250       287.6310       120.1250        76.4355         0.4849         2.3181 
      7952.2500         1.4258         1.0782         1.0501        12.6905       119.8380       287.3570       119.8380        76.4230         0.4831         2.3212 
      7952.5000         1.4212         1.0752         1.0498        12.6989       119.8490       287.5000       119.8490        76.1176         0.4697         2.3211 
      7952.7500         1.4193         1.0733         1.0496        12.6987       120.2110       287.5310       120.2110        76.0625         0.4583         2.3228 
      7953.0000         1.4174         1.0726         1.0496        12.6900       120.9230       287.4490       120.9230        76.2576         0.4488         2.3263 
      7953.2500         1.4191         1.0730         1.0497        12.6927       121.2330       287.3160       121.2330        75.1875         0.4421         2.3262 
      7953.5000         1.4207         1.0745         1.0500        12.7069       121.1410       287.1320       121.1410        72.8521         0.4381         2.3225 
      7953.7500         1.4210         1.0755         1.0496        12.7228       121.3030       287.0290       121.3030        72.4995         0.4391         2.3187 
      7954.0000         1.4214         1.0761         1.0486        12.7406       121.7170       287.0080       121.7170        74.1294         0.4451         2.3146 
      7954.2500         1.4177         1.0747         1.0457        12.7433       121.8330       286.9710       121.8330        74.6855         0.4545         2.3091 
      7954.5000         1.4140         1.0715         1.0408        12.7311       121.6520       286.9210       121.6520        74.1679         0.4672         2.3022 
      7954.7500         1.4093         1.0667         1.0340        12.7199       121.3860       286.8650       121.3860        73.9753         0.4689         2.2985 
      7955.0000         1.4045         1.0602         1.0252        12.7098       121.0350       286.8060       121.0350        74.1075         0.4595         2.2980 
      7955.2500         1.4003         1.0534         1.0164        12.6907       120.6820       286.6820       120.6820        74.2243         0.4562         2.2982 
      7955.5000         1.3961         1.0462         1.0077        12.6627       120.3270       286.4940       120.3270        74.3253         0.4589         2.2991 
      7955.7500         1.3901         1.0391         1.0007        12.6444       120.0600       286.1940       120.0600        74.0424         0.4649         2.2984 
