~Version Information Block
VERS .                 2.00:  CWLS LOG ASCII STANDARD - VERSION 2.00
WRAP .                  YES:  Multiple lines per depth step
~Well Information Block
#MNEM.UNIT        Data Type   Information
#---------- ----------------  -----------
STRT .F                3000:  START DEPTH
STOP .F                3120:  STOP DEPTH
STEP .F                 0.5:  STEP
NULL .              -999.25:  NULL VALUE
COMP .            Ewing Oil:  COMPANY
WELL .         Sue Ellen #4:  WELL
FLD  .      SouthFork Ranch:  FIELD
LOC  .                Plano:  LOCATION
CNTY .               Collin:  COUNTY
STAT .                Texas:  STATE
CTRY .                   US:  COUNTRY
API  .           1234512345:  API NUMBER
SRVC .  Unified Development:  SERVICE COMPANY
DATE .            1/11/1988:  LOG DATE
~Curve Information Block
#MNEM.UNIT         API CODE   Curve Description
#---------- ----------------  -----------------
DEPTH.F                    :  Depth
AO10 .OHMM                 :  ShalRes    NA
AO20 .OHMM                 :  ShalRes    NA
AO30 .OHMM                 :  MedRes     NA
AO60 .OHMM                 :  MedRes     NA
AO90 .OHMM                 :  XDeepRes   NA
AT10 .OHMM                 :  ShalRes    NA
AT20 .OHMM                 :  ShalRes    NA
AT30 .OHMM                 :  MedRes     NA
AT60 .OHMM                 :  MedRes     NA
AT90 .OHMM                 :  XDeepRes   NA
C_POR.%                    :  
C_RHOB.G/C3                 :  
C_RHOG.G/C3                 :  
C_SW .%                    :  
DT   .US/F                 :  Sonic
DT1R .US/F                 :  ShearSonic NA
DT2R .US/F                 :  ShearSonic NA
DT4P .US/F                 :  Sonic      NA
DT4S .US/F                 :  ShearSonic NA
DTCO .US/F                 :  Sonic      NA
NPHI .V/V                  :  Neutron    NA
NPOR .V/V                  :  Neutron    NA
PEFZ .B/E                  :  PEF        HRDD                              :NA
PHIT_311 .DEC              :  PhiT
RDEEP.OHMM                 :  XDeepRes   NA
RHO8 .G/C3                 :  Density    NA
RHOB .G/C3                 :  Density
RHOZ .G/C3                 :  Density    NA
SP   .MV                   :  SP         NA
SW_311.DEC                 :  Sw   
TEMP .F                    :  Temp
~Parameter Information Block
#MNEM.UNIT            Value   Description
#---------- ----------------  -----------
JUNK .                 0.28:  rifle range
RW   .OHMM             0.04:  Resistivity of Water
LATI .            34/34/4.4:  Latitude {DEG/MIN/SEC}
LONG .         -102/20/44.4:  Longitude {DEG/MIN/SEC}
B_JUNK.                   2:  B Factor
A_JUNK.                   2:  Saturation Speed
WELL_NAME.          well #4:  Well Name
~Other Information Block
~Ascii Log Data
# ...
         3099.0
       12.0150       11.0021       11.6738       12.2925       12.1150
       13.3830       11.6772       12.3151       12.6363       12.2481
     -999.2500     -999.2500     -999.2500     -999.2500       72.9706
      132.9690      134.4930       72.9706      127.9660       72.9706
      0.166100      0.170500        3.0437      0.059093       12.2481
        2.6813        2.6813        2.6633     -203.8750        1.0000
      160.0000
         3099.5
       14.8106       13.1599       13.8502       14.4875       14.2332
       16.1926       14.0558       15.0588       15.5024       15.0186
     -999.2500     -999.2500     -999.2500     -999.2500       71.8687
      132.6140      134.8780       71.8687      127.6870       71.8687
      0.152500      0.175600        2.9579      0.056235       15.0186
        2.6547        2.6547        2.6603     -203.9380        1.0000
      160.0000
         3100.0
       25.2124       24.2021       22.4670       23.5411       22.9727
       20.9545       19.2951       20.7122       20.9274       20.9005
     -999.2500     -999.2500     -999.2500     -999.2500       71.1721
      129.0520      125.8170       71.1721      130.5330       71.1721
      0.111600      0.107000        2.8889      0.054426       20.9005
        2.6428        2.6428        2.6486     -204.6250        0.8987
      160.0000
         3100.5
       27.1288       26.3199       25.1553       28.2809       27.8915
       22.6554       21.0498       21.2178       21.0890       20.8505
     -999.2500     -999.2500     -999.2500     -999.2500       70.5383
      132.8940      129.6390       70.5383      133.3780       70.5383
      0.093400      0.065900        2.9039      0.052780       20.8505
        2.6480        2.6480        2.6384     -203.7500        0.9278
      160.0000
         3101.0
       14.4652       14.6609       16.1076       16.2714       15.9607
       15.3295       15.1659       16.1284       15.8875       16.2676
     -999.2500     -999.2500     -999.2500     -999.2500       71.4881
      133.6950      137.9690       71.4881      136.1770       71.4881
      0.111500      0.094600        3.0144      0.055246       16.2676
        2.6679        2.6679        2.6328     -203.6880        1.0000
      160.0000
         3101.5
       11.8040       10.9029       11.7055       12.1805       11.9889
       12.5720       11.7704       12.6184       12.6491       12.8027
     -999.2500     -999.2500     -999.2500     -999.2500       74.3074
      134.8420      143.2250       74.3074      143.4320       74.3074
      0.146300      0.157900        3.1185      0.062548       12.8027
        2.6527        2.6527        2.6405     -203.5620        0.9991
      160.0000
         3102.0
       12.6769       10.9125       11.2267       11.5541       11.3942
       11.4631       10.6754       11.1749       11.2002       11.3696
     -999.2500     -999.2500     -999.2500     -999.2500       74.1940
      140.3700      143.2350       74.1940      146.1060       74.1940
      0.182600      0.186900        3.1740      0.062256       11.3696
        2.6345        2.6345        2.6460     -202.8750        1.0000
      160.0000
         3102.5
        8.9082        8.9321        9.6170        9.8866        9.7672
       10.4412        9.8923       10.2939       10.4738       10.4877
     -999.2500     -999.2500     -999.2500     -999.2500       76.4585
      144.5250      142.6390       76.4585      146.2550       76.4585
      0.197000      0.191300        3.1777      0.068061       10.4877
        2.6612        2.6612        2.6592     -203.0620        1.0000
      160.0000
         3103.0
       10.4463       10.0064       10.3148       10.7679       10.6224
       10.5859        9.9743       10.4792       10.5761       10.4642
     -999.2500     -999.2500     -999.2500     -999.2500       75.6002
      145.3940      144.9840       75.6002      144.1130       75.6002
      0.201100      0.197100        3.2177      0.065870       10.4642
        2.6679        2.6679        2.6649     -202.8750        1.0000
      160.0000
         3103.5
       12.2129       11.2422       12.0964       12.4380       12.2426
       11.5588       10.9188       11.2418       11.2313       11.1253
     -999.2500     -999.2500     -999.2500     -999.2500       74.4126
      145.3590      148.2260       74.4126      137.0040       74.4126
      0.194700      0.180800        3.2196      0.062819       11.1253
        2.6796        2.6796        2.6707     -202.5000        1.0000
      160.0000
         3104.0
       11.8889       10.5143       11.1544       11.5407       11.3548
       12.3027       11.3564       11.9490       12.1488       11.8530
     -999.2500     -999.2500     -999.2500     -999.2500       74.8540
      139.1630      138.8050       74.8540      140.8580       74.8540
      0.170900      0.192000        3.1545      0.063955       11.8530
        2.6671        2.6671        2.6598     -203.0620        1.0000
      160.0000
         3104.5
       14.8383       13.0829       13.5564       14.0861       13.8307
       13.6929       12.4877       13.1217       13.1113       12.9082
     -999.2500     -999.2500     -999.2500     -999.2500       73.5611
      138.7370      136.3740       73.5611      135.6740       73.5611
      0.156500      0.145100        3.0158      0.060621       12.9082
        2.6482        2.6482        2.6477     -202.8750        1.0000
      160.0000
         3105.0
       14.7543       13.2391       14.9199       15.8800       15.6064
       13.0964       12.0965       12.5884       12.8313       12.5947
     -999.2500     -999.2500     -999.2500     -999.2500       72.4372
      143.0450      141.5370       72.4372      130.3770       72.4372
      0.154100      0.129500        2.8902      0.057710       12.5947
        2.6233        2.6233        2.6405     -202.5620        1.0000
      160.0000
         3105.5
        9.2842        8.4894        9.3792        9.8728        9.7102
       12.5453       11.6078       12.1736       12.2169       12.1052
     -999.2500     -999.2500     -999.2500     -999.2500       71.6999
      135.9460      137.0000       71.6999      134.5690       71.6999
      0.143200      0.173800        2.8384      0.055797       12.1052
        2.6577        2.6577        2.6433     -203.0000        1.0000
      160.0000
         3106.0
       17.2492       16.7582       16.2808       17.0853       16.7790
       15.1861       13.4278       13.8959       14.0062       13.7636
     -999.2500     -999.2500     -999.2500     -999.2500       72.5097
      134.3840      137.4430       72.5097      140.1030       72.5097
      0.141500      0.128300        2.8548      0.057898       13.7636
        2.6534        2.6534        2.6490     -202.1250        1.0000
      160.0000
         3106.5
       15.5884       16.2104       15.7935       15.7132       15.4062
       13.5513       13.0144       13.8900       14.1298       14.0001
     -999.2500     -999.2500     -999.2500     -999.2500       73.6884
      135.8180      138.5850       73.6884      135.3890       73.6884
      0.143600      0.102400        2.9298      0.060950       14.0001
        2.6579        2.6579        2.6536     -202.5620        0.9805
      160.0000
         3107.0
        8.1908        9.1331        9.7101        9.9877        9.8448
       11.2561       10.9812       11.6339       11.9507       11.6975
     -999.2500     -999.2500     -999.2500     -999.2500       72.4996
      136.3110      139.9110       72.4996      136.3270       72.4996
      0.166700      0.180200        3.0132      0.057872       11.6975
        2.6525        2.6525        2.6576     -201.5620        1.0000
      160.0000
         3107.5
       12.8360       12.0464       12.2580       12.2296       12.0073
       12.8583       11.7825       12.4918       12.7525       12.5074
     -999.2500     -999.2500     -999.2500     -999.2500       72.8868
      137.2560      139.5830       72.8868      138.4610       72.8868
      0.169200      0.194200        3.0614      0.058876       12.5074
        2.6730        2.6730        2.6644     -201.5000        1.0000
      160.0000
