~Version Information Block
VERS .                 2.00:  CWLS LOG ASCII STANDARD - VERSION 2.00
WRAP .                   NO:  One line per depth step
~Well Information Block
#MNEM.UNIT        Data Type   Information
#---------- ----------------  -----------
STRT .F                7800:  START DEPTH
STOP .F                8368:  STOP DEPTH
STEP .F                0.25:  STEP
NULL .              -999.25:  NULL VALUE
WELL .                 TEST:  WELL
~Curve Information Block
#MNEM.UNIT         API CODE   Curve Description
#---------- ----------------  -----------------
DEPTH.F                    :  
AT10 .OHMM                 :  Loaded
AT30 .OHMM                 :  Loaded
AT90 .OHMM                 :  Loaded
CALI .IN                   :  Loaded
DTCO .US/F                 :  Filled log.
DTSM .US/F                 :  Loaded
DT_ED.US/F                 :  Edited log.
GR   .GAPI                 :  
NPHI .V/V                  :  Loaded
RHOB .G/C3                 :  Loaded
~Other Information Block
~A        DEPTH           AT10           AT30           AT90           CALI           DTCO           DTSM          DT_ED             GR           NPHI           RHOB 
# ...
      8016.0000         1.5172         1.1451         1.1270        12.8736       127.0120       292.1280       127.0120        69.9126         0.4642         2.2683 
      8016.2500         1.5461         1.1539         1.1341        12.8906       126.6000       290.1730       126.6000        70.6337         0.4463         2.2619 
      8016.5000         1.5751         1.1700         1.1433        12.9253       126.2800       288.9870       126.2800        71.3091         0.4335         2.2583 
      8016.7500         1.5903         1.1854         1.1509        12.9403       125.5380       288.3540       125.5380        71.9431         0.4348         2.2529 
      8017.0000         1.6055         1.2002         1.1568        12.9354       124.3750       288.2730       124.3750        72.5358         0.4502         2.2457 
      8017.2500         1.6027         1.2079         1.1602        12.9163       124.0370       288.0900       124.0370        72.1658         0.4662         2.2435 
      8017.5000         1.5999         1.2084         1.1612        12.8831       124.5260       287.8050       124.5260        70.8334         0.4826         2.2465 
      8017.7500         1.5925         1.2029         1.1580        12.8321       124.0150       287.4190       124.0150        70.1452         0.4948         2.2555 
      8018.0000         1.5850         1.1911         1.1505        12.7635       122.5050       286.9320       122.5050        70.1016         0.5026         2.2706 
      8018.2500         1.5957         1.1833         1.1428        12.7128       121.5140       286.6380       121.5140        70.7637         0.5004         2.2886 
      8018.5000         1.6063         1.1795         1.1348        12.6802       121.0400       286.5360       121.0400        72.1315         0.4883         2.3094 
      8018.7500         1.6406         1.1850         1.1322        12.6376       120.6500       286.6510       120.6500        73.2621         0.4781         2.3229 
      8019.0000         1.6749         1.1997         1.1350        12.5851       120.3460       286.9820       120.3460        74.1557         0.4698         2.3291 
      8019.2500         1.6996         1.2152         1.1403        12.5369       120.2260       287.5470       120.2260        74.9294         0.4720         2.3266 
      8019.5000         1.7244         1.2314         1.1482        12.4929       120.2920       288.3460       120.2920        75.5833         0.4849         2.3154 
      8019.7500         1.6973         1.2340         1.1492        12.4681       120.6870       289.4930       120.6870        75.4408         0.4911         2.3050 
      8020.0000         1.6702         1.2229         1.1432        12.4627       121.4110       290.9880       121.4110        74.5020         0.4906         2.2955 
      8020.2500         1.6059         1.1984         1.1279        12.4613       121.8830       292.3120       121.8830        74.7990         0.4861         2.2857 
      8020.5000         1.5416         1.1605         1.1034        12.4641       122.1040       293.4640       122.1040        76.3314         0.4775         2.2759 
      8020.7500         1.4849         1.1223         1.0772        12.4733       122.1320       294.0960       122.1320        77.1373         0.4771         2.2718 
      8021.0000         1.4282         1.0838         1.0495        12.4892       121.9640       294.2060       121.9640        77.2166         0.4850         2.2734 
      8021.2500         1.3956         1.0520         1.0260        12.5119       121.8450       294.5850       121.8450        77.2928         0.4875         2.2767 
      8021.5000         1.3630         1.0272         1.0067        12.5414       121.7730       295.2330       121.7730        77.3661         0.4847         2.2816 
      8021.7500         1.3497         1.0094         0.9922        12.5824       121.5720       295.4000       121.5720        77.0475         0.4850         2.2889 
      8022.0000         1.3363         0.9988         0.9825        12.6349       121.2400       295.0860       121.2400        76.3372         0.4882         2.2988 
      8022.2500         1.3342         0.9931         0.9761        12.6849       120.9820       294.9040       120.9820        75.8995         0.4753         2.3048 
      8022.5000         1.3321         0.9924         0.9730        12.7325       120.7980       294.8540       120.7980        75.7341         0.4463         2.3068 
      8022.7500         1.3341         0.9934         0.9715        12.7906       120.8740       294.6800       120.8740        75.8663         0.4339         2.3091 
      8023.0000         1.3362         0.9961         0.9714        12.8594       121.2100       294.3800       121.2100        76.2961         0.4382         2.3114 
      8023.2500         1.3383         0.9982         0.9716        12.9117       121.4820       294.1020       121.4820        76.3248         0.4395         2.3133 
      8023.5000         1.3404         0.9998         0.9719        12.9477       121.6890       293.8460       121.6890        75.9527         0.4379         2.3150 
      8023.7500         1.3433         1.0010         0.9725        13.0049       121.7000       293.4400       121.7000        75.2999         0.4449         2.3170 
      8024.0000         1.3461         1.0020         0.9734        13.0831       121.5150       292.8860       121.5150        74.3667         0.4605         2.3194 
      8024.2500         1.3512         1.0040         0.9753        13.1334       121.2630       292.1590       121.2630        74.6878         0.4677         2.3201 
      8024.5000         1.3563         1.0069         0.9784        13.1558       120.9430       291.2610       120.9430        76.2633         0.4665         2.3191 
      8024.7500         1.3621         1.0108         0.9827        13.1421       120.4530       290.6080       120.4530        77.4039         0.4689         2.3178 
      8025.0000         1.3679         1.0155         0.9880        13.0926       119.7930       290.2010       119.7930        78.1099         0.4751         2.3162 
      8025.2500         1.3728         1.0200         0.9935        13.0145       119.6320       289.9930       119.6320        78.0681         0.4744         2.3175 
      8025.5000         1.3776         1.0244         0.9991        12.9076       119.9690       289.9870       119.9690        77.2787         0.4670         2.3216 
      8025.7500         1.3818         1.0281         1.0045        12.8406       119.9090       289.4710       119.9090        76.9099         0.4698         2.3244 
      8026.0000         1.3860         1.0311         1.0095        12.8134       119.4510       288.4450       119.4510        76.9617         0.4828         2.3258 
      8026.2500         1.3916         1.0345         1.0149        12.7959       119.1020       287.6060       119.1020        76.4081         0.4869         2.3298 
      8026.5000         1.3972         1.0381         1.0206        12.7881       118.8590       286.9540       118.8590        75.2488         0.4823         2.3366 
      8026.7500         1.4082         1.0439         1.0277        12.7480       118.4190       286.0650       118.4190        75.9653         0.4853         2.3391 
      8027.0000         1.4192         1.0518         1.0363        12.6756       117.7830       284.9370       117.7830        78.5577         0.4958         2.3374 
      8027.2500         1.4405         1.0632         1.0471        12.6295       117.2350       283.7850       117.2350        79.1743         0.4938         2.3358 
      8027.5000         1.4617         1.0781         1.0601        12.6096       116.7770       282.6090       116.7770        77.8151         0.4793         2.3343 
      8027.7500         1.4951         1.0957         1.0749        12.5841       116.3670       280.8940       116.3670        77.1044         0.4708         2.3324 
