~Version Information Block
VERS .                 2.00:  CWLS LOG ASCII STANDARD - VERSION 2.00
WRAP .                  YES:  Multiple lines per depth step
~Well Information Block
#MNEM.UNIT        Data Type   Information
#---------- ----------------  -----------
STRT .F                3000:  START DEPTH
STOP .F                3120:  STOP DEPTH
STEP .F                 0.5:  STEP
NULL .              -999.25:  NULL VALUE
COMP .            Ewing Oil:  COMPANY
WELL .         Sue Ellen #4:  WELL
FLD  .      SouthFork Ranch:  FIELD
LOC  .                Plano:  LOCATION
CNTY .               Collin:  COUNTY
STAT .                Texas:  STATE
CTRY .                   US:  COUNTRY
API  .           1234512345:  API NUMBER
SRVC .  Unified Development:  SERVICE COMPANY
DATE .            1/11/1988:  LOG DATE
~Curve Information Block
#MNEM.UNIT         API CODE   Curve Description
#---------- ----------------  -----------------
DEPTH.F                    :  Depth
AO10 .OHMM                 :  ShalRes    NA
AO20 .OHMM                 :  ShalRes    NA
AO30 .OHMM                 :  MedRes     NA
AO60 .OHMM                 :  MedRes     NA
AO90 .OHMM                 :  XDeepRes   NA
AT10 .OHMM                 :  ShalRes    NA
AT20 .OHMM                 :  ShalRes    NA
AT30 .OHMM                 :  MedRes     NA
AT60 .OHMM                 :  MedRes     NA
AT90 .OHMM                 :  XDeepRes   NA
C_POR.%                    :  
C_RHOB.G/C3                 :  
C_RHOG.G/C3                 :  
C_SW .%                    :  
DT   .US/F                 :  Sonic
DT1R .US/F                 :  ShearSonic NA
DT2R .US/F                 :  ShearSonic NA
DT4P .US/F                 :  Sonic      NA
DT4S .US/F                 :  ShearSonic NA
DTCO .US/F                 :  Sonic      NA
NPHI .V/V                  :  Neutron    NA
NPOR .V/V                  :  Neutron    NA
PEFZ .B/E                  :  PEF        HRDD                              :NA
PHIT_311 .DEC              :  PhiT
RDEEP.OHMM                 :  XDeepRes   NA
RHO8 .G/C3                 :  Density    NA
RHOB .G/C3                 :  Density
RHOZ .G/C3                 :  Density    NA
SP   .MV                   :  SP         NA
SW_311.DEC                 :  Sw   
TEMP .F                    :  Temp
~Parameter Information Block
#MNEM.UNIT            Value   Description
#---------- ----------------  -----------
JUNK .                 0.28:  rifle range
RW   .OHMM             0.04:  Resistivity of Water
LATI .            34/34/4.4:  Latitude {DEG/MIN/SEC}
LONG .         -102/20/44.4:  Longitude {DEG/MIN/SEC}
B_JUNK.                   2:  B Factor
A_JUNK.                   2:  Saturation Speed
WELL_NAME.          well #4:  Well Name
~Other Information Block
~Ascii Log Data
# ...
         3027.0
        7.6067        7.3401        7.9931        8.0128        7.8864
        7.5880        7.3952        7.7270        7.9391        7.7685
     -999.2500     -999.2500     -999.2500     -999.2500       82.3509
      159.5870      160.6280       82.3509      161.2710       82.3509
      0.231300      0.232800        3.3956      0.082666        7.7685
        2.6820        2.6820        2.6916     -197.0000        0.9705
      160.0000
         3027.5
        7.3383        7.1941        7.6816        8.2373        8.1055
        7.1137        7.0138        7.3699        7.5346        7.4194
     -999.2500     -999.2500     -999.2500     -999.2500       82.3618
      160.9170      161.0390       82.3618      156.0980       82.3618
      0.246000      0.247000        3.3459      0.082693        7.4194
        2.6762        2.6762        2.6795     -197.1250        0.9927
      160.0000
         3028.0
        6.6192        6.4573        6.4025        6.6966        6.6057
        7.1846        6.9800        7.1858        7.4112        7.2322
     -999.2500     -999.2500     -999.2500     -999.2500       80.4218
      160.2900      160.3610       80.4218      150.9260       80.4218
      0.246500      0.260500        3.2926      0.077981        7.2322
        2.6540        2.6540        2.6625     -197.4380        1.0000
      160.0000
         3028.5
        9.4430        8.0853        8.0548        8.5376        8.3907
        8.2920        7.7599        8.2118        8.4378        8.2767
     -999.2500     -999.2500     -999.2500     -999.2500       79.4940
      159.3850      159.8590       79.4940      145.7530       79.4940
      0.231700      0.243800        3.2112      0.075692        8.2767
        2.6444        2.6444        2.6506     -197.1250        1.0000
      160.0000
         3029.0
       10.1943        9.6569       10.4134       11.1396       10.8978
       10.1285        9.7211       10.4964       10.7061       10.5050
     -999.2500     -999.2500     -999.2500     -999.2500       77.2106
      153.7400      158.4130       77.2106      147.5180       77.2106
      0.192400      0.179600        3.1549      0.069970       10.5050
        2.6512        2.6512        2.6524     -197.6250        0.9860
      160.0000
         3029.5
       13.3669       12.5583       14.6899       15.1941       14.8063
       11.7837       11.2407       12.1407       12.5015       12.0911
     -999.2500     -999.2500     -999.2500     -999.2500       76.3314
      148.6610      147.7320       76.3314      144.9410       76.3314
      0.178400      0.137500        3.1250      0.067737       12.0911
        2.6756        2.6756        2.6608     -196.3750        0.9494
      160.0000
         3030.0
        8.7823        8.6810        9.4198        9.8770        9.6827
       10.6145       10.3846       11.0329       11.3835       11.0890
     -999.2500     -999.2500     -999.2500     -999.2500       74.6196
      147.4980      147.9630       74.6196      150.4660       74.6196
      0.173400      0.184000        3.1224      0.063352       11.0890
        2.6819        2.6819        2.6689     -197.0620        1.0000
      160.0000
         3030.5
       11.7331       11.1722       11.5081       11.4879       11.2344
       10.1205       10.0580       10.6884       10.9307       10.6593
     -999.2500     -999.2500     -999.2500     -999.2500       74.9569
      148.7750      148.9470       74.9569      151.3700       74.9569
      0.184200      0.182200        3.1203      0.064220       10.6593
        2.6706        2.6706        2.6729     -197.0000        1.0000
      160.0000
         3031.0
        9.0411        9.2396        9.8287        9.9271        9.7311
        9.4328        9.3086        9.9075       10.1891        9.9301
     -999.2500     -999.2500     -999.2500     -999.2500       76.9525
      149.7440      148.9840       76.9525      151.9900       76.9525
      0.189100      0.173700        3.1223      0.069316        9.9301
        2.6847        2.6847        2.6742     -196.3750        1.0000
      160.0000
         3031.5
        8.8616        8.5143        9.7576        9.7217        9.5345
        9.0516        8.8394        9.3292        9.6614        9.3805
     -999.2500     -999.2500     -999.2500     -999.2500       76.3493
      151.9320      153.1270       76.3493      149.7190       76.3493
      0.208900      0.209800        3.1697      0.067782        9.3805
        2.6637        2.6637        2.6648     -197.0620        1.0000
      160.0000
         3032.0
        9.2581        9.1118        8.6698        8.6868        8.5355
        9.1125        8.6874        9.1869        9.4743        9.1729
     -999.2500     -999.2500     -999.2500     -999.2500       77.0582
      158.1140      155.7150       77.0582      154.1070       77.0582
      0.211900      0.220500        3.2370      0.069584        9.1729
        2.6630        2.6630        2.6602     -197.0620        1.0000
      160.0000
         3032.5
        9.0366        8.1771        8.4685        8.5939        8.4464
        9.1338        8.5952        9.1199        9.4256        9.0796
     -999.2500     -999.2500     -999.2500     -999.2500       78.6514
      158.3900      157.7610       78.6514      152.4580       78.6514
      0.203500      0.203300        3.2884      0.073594        9.0796
        2.6792        2.6792        2.6603     -196.7500        1.0000
      160.0000
         3033.0
       10.0481        9.4756        9.7534        9.9538        9.7557
        9.0231        8.7810        9.2464        9.5797        9.1973
     -999.2500     -999.2500     -999.2500     -999.2500       78.2575
      159.3160      159.4320       78.2575      153.7530       78.2575
      0.197300      0.187100        3.2807      0.072608        9.1973
        2.6796        2.6796        2.6691     -196.5000        1.0000
      160.0000
         3033.5
        8.3353        8.1828        8.5701        8.8360        8.6819
        8.2356        8.0544        8.5207        8.7971        8.4030
     -999.2500     -999.2500     -999.2500     -999.2500       79.8365
      160.7800      160.7370       79.8365      160.0770       79.8365
      0.205800      0.195300        3.2757      0.076539        8.4030
        2.6676        2.6676        2.6684     -196.7500        1.0000
      160.0000
         3034.0
        7.6336        7.3887        7.6415        7.8574        7.7367
        7.8122        7.5625        7.8699        8.3029        7.9116
     -999.2500     -999.2500     -999.2500     -999.2500       81.9290
      160.1120      160.2550       81.9290      165.6650       81.9290
      0.211500      0.211900        3.2849      0.081651        7.9116
        2.6629        2.6629        2.6601     -197.0000        0.9736
      160.0000
         3034.5
        7.6431        7.3344        7.1381        7.3978        7.2928
        7.5387        7.1349        7.4127        7.7332        7.4035
     -999.2500     -999.2500     -999.2500     -999.2500       82.3365
      161.3360      161.4920       82.3365      162.6110       82.3365
      0.205800      0.215400        3.3367      0.082632        7.4035
        2.6521        2.6521        2.6488     -197.1250        0.9945
      160.0000
         3035.0
        6.8592        6.7625        7.1376        7.3632        7.2610
        7.0575        6.8920        7.1998        7.4295        7.2109
     -999.2500     -999.2500     -999.2500     -999.2500       83.4402
      161.7300      162.9360       83.4402      159.1630       83.4402
      0.213200      0.199400        3.3569      0.085264        7.2109
        2.6468        2.6468        2.6494     -196.6880        0.9766
      160.0000
         3035.5
        6.4462        6.5824        6.9121        7.0557        6.9619
        7.0916        6.9176        7.2163        7.4059        7.2081
     -999.2500     -999.2500     -999.2500     -999.2500       82.4904
      161.7690      164.1070       82.4904      159.1210       82.4904
      0.216500      0.224400        3.3544      0.083001        7.2081
        2.6669        2.6669        2.6603     -197.3120        1.0000
      160.0000
