~Version Information Block
VERS .                 2.00:  CWLS LOG ASCII STANDARD - VERSION 2.00
WRAP .                   NO:  One line per depth step
~Well Information Block
#MNEM.UNIT        Data Type   Information
#---------- ----------------  -----------
STRT .M            500.0244:  START DEPTH
STOP .M            620.1156:  STOP DEPTH
STEP .M              0.1524:  STEP
NULL .              -999.25:  NULL VALUE
COMP .                     :  COMPANY
WELL .               WELL#2:  WELL
~Curve Information Block
#MNEM.UNIT         API CODE   Curve Description
#---------- ----------------  -----------------
DEPTH.M                    :  Measured Depth
CAL  .IN            UNKNOWN:  CAL:EXTERNAL:rC:NONE:v1
DRHO .G/C3          UNKNOWN:  ZCOR:EXTERNAL:rC:NONE:v1
DT   .US/F          UNKNOWN:  DT::rC:NONE:v1
DTS  .US/F          UNKNOWN:  DTS:EXTERNAL:rC:NONE:v1
GR   .GAPI          UNKNOWN:  GR:EXTERNAL:rC:NONE:v1
NPHI .V/V           UNKNOWN:  NPHI_NORM:v0
RHOB .G/C3          UNKNOWN:  Z3EN:EXTERNAL:rC:NONE:v1
RT   .OHMM          UNKNOWN:  M3RX:EXTERNAL:rC:NONE:v1
VP   .FT/S                 :  Output Velocity
~Parameter Information Block
#MNEM.UNIT            Value   Description
#---------- ----------------  -----------
ELEV_TYPE.                   KB:  ELEV TYPE
LAT  .             100.8026:  LATITUDE
LON  .             100.4617:  LONGITUDE
~Other Information Block
~A        DEPTH            CAL           DRHO             DT            DTS             GR           NPHI           RHOB             RT             VP
# ...
       586.8924       12.3630      0.015000      141.0030      348.5650       60.1050      0.430800        2.0080        1.0710     7092.0474
       587.0448       12.3680      0.014000      142.4380      351.1900       59.4560      0.440500        2.0070        1.0550     7020.5981
       587.1972       12.3700      0.015000      141.9010      352.2200       59.3670      0.453900        2.0080        1.0490     7047.1665
       587.3496       12.3700      0.018000      142.0780      351.0610       59.0760      0.458800        2.0100        1.0480     7038.3872
       587.5020       12.3700      0.016000      142.1500      351.6250       59.0040      0.450100        2.0100        1.0500     7034.8228
       587.6544       12.3710      0.010000      141.9090      351.5490       59.6220      0.434700        2.0080        1.0530     7046.7695
       587.8068       12.3730      0.011000      141.7220      351.7800       60.3950      0.421200        2.0080        1.0530     7056.0674
       587.9592       12.3760      0.017000      142.1800      352.4190       60.8890      0.414400        2.0120        1.0520     7033.3384
       588.1116       12.3760      0.024000      141.4180      351.8720       60.6450      0.412500        2.0250        1.0600     7071.2358
       588.2640       12.3700      0.032000      139.9460      352.1570       60.3310      0.414400        2.0470        1.0820     7145.6133
       588.4164       12.3680      0.034000      139.3360      353.4730       60.7280      0.423100        2.0660        1.1100     7176.8960
       588.5688       12.3710      0.026000      139.0720      351.9420       61.8720      0.428900        2.0700        1.1300     7190.5195
       588.7212       12.3720      0.019000      139.0170      352.7090       62.8530      0.423100        2.0620        1.1320     7193.3647
       588.8736       12.3730      0.019000      138.7930      352.2090       62.8390      0.414400        2.0490        1.1190     7204.9741
       589.0260       12.3740      0.019000      139.0100      352.9320       61.5370      0.415400        2.0330        1.1010     7193.7275
       589.1784       12.3710      0.015000      139.0450      353.6360       59.0610      0.424100        2.0190        1.0830     7191.9165
       589.3308       12.3670      0.018000      138.9560      353.3040       56.5370      0.427900        2.0170        1.0690     7196.5229
       589.4832       12.3670      0.027000      139.2840      354.0200       55.3540      0.427900        2.0280        1.0630     7179.5757
       589.6356       12.3700      0.031000      138.6140      353.8010       55.8720      0.437600        2.0420        1.0710     7214.2788
       589.7880       12.3700      0.025000      138.2870      355.3590       57.0300      0.444300        2.0520        1.0910     7231.3374
       589.9404       12.3690      0.019000      138.1510      353.8910       58.0260      0.442400        2.0580        1.1160     7238.4565
       590.0928       12.3700      0.019000      137.9440      353.3050       59.0190      0.443300        2.0660        1.1390     7249.3184
       590.2452       12.3730      0.024000      137.9510      350.8640       60.1720      0.452000        2.0750        1.1640     7248.9507
       590.3976       12.3740      0.026000      138.0170      350.0980       61.2270      0.456800        2.0820        1.1920     7245.4844
       590.5500       12.3710      0.025000      137.8590      348.7000       61.9420      0.447200        2.0850        1.2150     7253.7886
       590.7024       12.3690      0.023000      138.0650      347.1590       62.5490      0.427900        2.0850        1.2240     7242.9653
       590.8548       12.3690      0.019000      138.1160      347.1190       62.6620      0.419300        2.0780        1.2170     7240.2910
       591.0072       12.3720      0.018000      138.4680      347.1650       62.1230      0.427900        2.0640        1.1920     7221.8853
       591.1596       12.3750      0.025000      138.2420      347.3550       61.2720      0.443300        2.0530        1.1610     7233.6914
       591.3120       12.3720      0.029000      138.6180      346.3880       60.3250      0.452000        2.0470        1.1440     7214.0703
       591.4644       12.3660      0.027000      138.3070      347.2910       59.4530      0.450100        2.0470        1.1460     7230.2915
       591.6168       12.3620      0.026000      138.0580      347.9280       59.5070      0.444300        2.0530        1.1560     7243.3325
       591.7692       12.3640      0.029000      137.9180      347.8350       60.7980      0.442400        2.0600        1.1630     7250.6851
       591.9216       12.3660      0.029000      137.9750      347.7950       61.9880      0.446200        2.0610        1.1630     7247.6895
       592.0740       12.3660      0.027000      138.0080      346.9900       61.6650      0.447200        2.0530        1.1560     7245.9570
       592.2264       12.3660      0.024000      138.2830      346.3600       60.2240      0.441400        2.0430        1.1470     7231.5469
       592.3788       12.3700      0.021000      138.1670      345.4010       58.7920      0.433700        2.0350        1.1400     7237.6177
       592.5312       12.3740      0.018000      138.1470      346.1490       58.4490      0.427000        2.0320        1.1340     7238.6660
       592.6836       12.3710      0.018000      137.9400      346.5630       59.2960      0.433700        2.0320        1.1290     7249.5288
       592.8360       12.3650      0.021000      137.7760      345.3720       60.4640      0.446200        2.0350        1.1280     7258.1582
       592.9884       12.3660      0.024000      138.1060      345.8700       61.0500      0.439500        2.0420        1.1310     7240.8149
       593.1408       12.3690      0.025000      138.0340      347.8230       61.0940      0.422100        2.0450        1.1300     7244.5923
       593.2932       12.3690      0.023000      138.1990      347.6760       60.6500      0.421200        2.0410        1.1180     7235.9419
       593.4456       12.3700      0.020000      138.2020      347.1880       59.7580      0.430800        2.0310        1.0950     7235.7856
       593.5980       12.3730      0.021000      138.8970      346.0890       58.5100      0.435600        2.0220        1.0760     7199.5796
       593.7504       12.3750      0.022000      139.1770      346.4140       57.8110      0.437600        2.0190        1.0730     7185.0952
       593.9028       12.3750      0.019000      139.4210      348.4130       58.0400      0.439500        2.0180        1.0730     7172.5205
       594.0552       12.3740      0.017000      139.2880      347.3830       58.2340      0.437600        2.0130        1.0600     7179.3696
       594.2076       12.3720      0.020000      139.1700      347.4900       57.9950      0.422100        2.0060        1.0420     7185.4565
       594.3600       12.3670      0.023000      139.3680      347.7740       57.7730      0.401900        2.0060        1.0390     7175.2485
       594.5124       12.3660      0.023000      139.2950      347.8220       57.4760      0.405800        2.0140        1.0560     7179.0088
       594.6648       12.3690      0.020000      139.8030      349.4330       56.9920      0.428900        2.0240        1.0760     7152.9229
       594.8172       12.3690      0.019000      139.7550      348.3540       57.2470      0.443300        2.0280        1.0820     7155.3789
       594.9696       12.3630      0.018000      139.3260      346.8980       58.0010      0.453900        2.0250        1.0790     7177.4111
       595.1220       12.3640      0.016000      138.8950      347.9870       58.3860      0.475100        2.0180        1.0780     7199.6831
       595.2744       12.3690      0.018000      139.4620      348.4870       58.2530      0.489600        2.0160        1.0840     7170.4116
       595.4268       12.3690      0.021000      138.9710      347.5410       58.5250      0.475100        2.0210        1.0950     7195.7461
