~Version Information Block
VERS .                 2.00:  CWLS LOG ASCII STANDARD - VERSION 2.00
WRAP .                   NO:  One line per depth step
~Well Information Block
#MNEM.UNIT        Data Type   Information
#---------- ----------------  -----------
STRT .F                7800:  START DEPTH
STOP .F                8368:  STOP DEPTH
STEP .F                0.25:  STEP
NULL .              -999.25:  NULL VALUE
WELL .                 TEST:  WELL
~Curve Information Block
#MNEM.UNIT         API CODE   Curve Description
#---------- ----------------  -----------------
DEPTH.F                    :  
AT10 .OHMM                 :  Loaded
AT30 .OHMM                 :  Loaded
AT90 .OHMM                 :  Loaded
CALI .IN                   :  Loaded
DTCO .US/F                 :  Filled log.
DTSM .US/F                 :  Loaded
DT_ED.US/F                 :  Edited log.
GR   .GAPI                 :  
NPHI .V/V                  :  Loaded
RHOB .G/C3                 :  Loaded
~Other Information Block
~A        DEPTH           AT10           AT30           AT90           CALI           DTCO           DTSM          DT_ED             GR           NPHI           RHOB 
# ...
      8052.0000         1.5731         1.0246         1.0132        12.7685       127.0940       295.6680       127.0940        88.1876         0.5515         2.2863 
      8052.2500         1.5843         1.0258         1.0119        12.8070       128.1840       296.3440       128.1840        87.1016         0.5428         2.2844 
      8052.5000         1.5954         1.0296         1.0092        12.8648       128.9060       296.9080       128.9060        86.6336         0.5396         2.2807 
      8052.7500         1.6094         1.0397         1.0108        12.9035       128.7250       297.2310       128.7250        86.4455         0.5339         2.2787 
      8053.0000         1.6234         1.0563         1.0166        12.9232       127.6410       297.3120       127.6410        86.5373         0.5258         2.2781 
      8053.2500         1.6401         1.0757         1.0270        12.9310       127.1250       297.4670       127.1250        86.7959         0.5213         2.2773 
      8053.5000         1.6568         1.0980         1.0419        12.9270       127.1780       297.6970       127.1780        87.2211         0.5206         2.2761 
      8053.7500         1.6684         1.1144         1.0548        12.9303       126.9440       297.2810       126.9440        86.7673         0.5232         2.2777 
      8054.0000         1.6801         1.1250         1.0655        12.9412       126.4240       296.2210       126.4240        85.4343         0.5289         2.2818 
      8054.2500         1.6801         1.1270         1.0696        12.9436       125.9750       295.5760       125.9750        84.7446         0.5354         2.2868 
      8054.5000         1.6800         1.1202         1.0669        12.9375       125.5990       295.3460       125.5990        84.6984         0.5426         2.2924 
      8054.7500         1.6765         1.1131         1.0636        12.9240       125.0180       294.8930       125.0180        84.3426         0.5499         2.3000 
      8055.0000         1.6730         1.1056         1.0594        12.9028       124.2320       294.2210       124.2320        83.6772         0.5572         2.3097 
      8055.2500         1.6737         1.1030         1.0597        12.8848       123.4860       293.6250       123.4860        83.6266         0.5510         2.3185 
      8055.5000         1.6744         1.1053         1.0646        12.8699       122.7820       293.1050       122.7820        84.1907         0.5312         2.3267 
      8055.7500         1.6607         1.1056         1.0673        12.8311       122.2520       293.0950       122.2520        83.9624         0.5154         2.3340 
      8056.0000         1.6470         1.1037         1.0677        12.7685       121.8960       293.5930       121.8960        82.9417         0.5035         2.3406 
      8056.2500         1.6000         1.0928         1.0583        12.6926       121.9650       294.2900       121.9650        83.0898         0.4993         2.3444 
      8056.5000         1.5531         1.0727         1.0390        12.6033       122.4600       295.1860       122.4600        84.4068         0.5027         2.3454 
      8056.7500         1.4936         1.0478         1.0153        12.5466       123.0360       295.7360       123.0360        84.9063         0.5197         2.3398 
      8057.0000         1.4341         1.0181         0.9872        12.5226       123.6930       295.9400       123.6930        84.5886         0.5501         2.3276 
      8057.2500         1.3915         0.9894         0.9624        12.5129       124.3330       296.3300       124.3330        85.0811         0.5682         2.3151 
      8057.5000         1.3489         0.9615         0.9407        12.5175       124.9530       296.9060       124.9530        86.3837         0.5740         2.3022 
      8057.7500         1.3285         0.9369         0.9224        12.5248       125.9020       297.3360       125.9020        86.2387         0.5731         2.2953 
      8058.0000         1.3081         0.9155         0.9076        12.5349       127.1770       297.6180       127.1770        84.6461         0.5654         2.2942 
      8058.2500         1.3032         0.9002         0.8962        12.5485       128.2360       297.8420       128.2360        83.7947         0.5578         2.2931 
      8058.5000         1.2982         0.8910         0.8884        12.5656       129.0780       298.0080       129.0780        83.6843         0.5501         2.2921 
      8058.7500         1.3049         0.8905         0.8874        12.5891       129.4380       298.1840       129.4380        83.8643         0.5509         2.2935 
      8059.0000         1.3116         0.8986         0.8931        12.6191       129.3140       298.3700       129.3140        84.3345         0.5600         2.2973 
      8059.2500         1.3273         0.9115         0.9045        12.6428       129.3970       299.6610       129.3970        84.2448         0.5685         2.2986 
      8059.5000         1.3430         0.9293         0.9213        12.6604       129.6880       302.0550       129.6880        83.5948         0.5766         2.2976 
      8059.7500         1.3592         0.9438         0.9346        12.6842       130.0160       303.2360       130.0160        83.4074         0.5758         2.2984 
      8060.0000         1.3755         0.9548         0.9444        12.7141       130.3820       303.2030       130.3820        83.6825         0.5659         2.3011 
      8060.2500         1.3818         0.9591         0.9463        12.7556       130.7410       303.3460       130.7410        83.6288         0.5571         2.3022 
      8060.5000         1.3882         0.9567         0.9404        12.8087       131.0930       303.6640       131.0930        83.2462         0.5491         2.3017 
      8060.7500         1.3894         0.9532         0.9347        12.8665       130.8310       304.2940       130.8310        82.9800         0.5390         2.3037 
      8061.0000         1.3905         0.9487         0.9291        12.9290       129.9530       305.2340       129.9530        82.8302         0.5266         2.3082 
      8061.2500         1.4056         0.9492         0.9302        12.9949       129.2630       305.7740       129.2630        82.9658         0.5254         2.3107 
      8061.5000         1.4207         0.9546         0.9380        13.0642       128.7610       305.9120       128.7610        83.3868         0.5354         2.3113 
      8061.7500         1.4598         0.9660         0.9508        13.1077       128.3910       304.7100       128.3910        83.3188         0.5372         2.3147 
      8062.0000         1.4990         0.9833         0.9686        13.1254       128.1540       302.1670       128.1540        82.7618         0.5306         2.3209 
      8062.2500         1.5498         1.0041         0.9868        13.1129       127.3500       298.7260       127.3500        82.5395         0.5301         2.3236 
      8062.5000         1.6007         1.0284         1.0054        13.0704       125.9790       294.3860       125.9790        82.6519         0.5358         2.3227 
      8062.7500         1.6408         1.0524         1.0224        13.0004       125.0140       291.1640       125.0140        82.3470         0.5297         2.3229 
      8063.0000         1.6809         1.0760         1.0379        12.9030       124.4530       289.0580       124.4530        81.6246         0.5119         2.3242 
      8063.2500         1.6988         1.0964         1.0519        12.8424       122.9880       286.6190       122.9880        81.6497         0.5014         2.3248 
      8063.5000         1.7168         1.1138         1.0644        12.8188       120.6190       283.8470       120.6190        82.4225         0.4981         2.3247 
      8063.7500         1.7139         1.1269         1.0750        12.8066       118.9370       281.2550       118.9370        82.4997         0.4954         2.3240 
