~Version Information Block
VERS .                 2.00:  CWLS LOG ASCII STANDARD - VERSION 2.00
WRAP .                   NO:  One line per depth step
~Well Information Block
#MNEM.UNIT        Data Type   Information
#---------- ----------------  -----------
STRT .M            500.0244:  START DEPTH
STOP .M            620.1156:  STOP DEPTH
STEP .M              0.1524:  STEP
NULL .              -999.25:  NULL VALUE
COMP .                     :  COMPANY
WELL .               WELL#2:  WELL
~Curve Information Block
#MNEM.UNIT         API CODE   Curve Description
#---------- ----------------  -----------------
DEPTH.M                    :  Measured Depth
CAL  .IN            UNKNOWN:  CAL:EXTERNAL:rC:NONE:v1
DRHO .G/C3          UNKNOWN:  ZCOR:EXTERNAL:rC:NONE:v1
DT   .US/F          UNKNOWN:  DT::rC:NONE:v1
DTS  .US/F          UNKNOWN:  DTS:EXTERNAL:rC:NONE:v1
GR   .GAPI          UNKNOWN:  GR:EXTERNAL:rC:NONE:v1
NPHI .V/V           UNKNOWN:  NPHI_NORM:v0
RHOB .G/C3          UNKNOWN:  Z3EN:EXTERNAL:rC:NONE:v1
RT   .OHMM          UNKNOWN:  M3RX:EXTERNAL:rC:NONE:v1
VP   .FT/S                 :  Output Velocity
~Parameter Information Block
#MNEM.UNIT            Value   Description
#---------- ----------------  -----------
ELEV_TYPE.                   KB:  ELEV TYPE
LAT  .             100.8026:  LATITUDE
LON  .             100.4617:  LONGITUDE
~Other Information Block
~A        DEPTH            CAL           DRHO             DT            DTS             GR           NPHI           RHOB             RT             VP
# ...
       595.5792       12.3700      0.022000      139.8020      347.6300       59.2110      0.444300        2.0250        1.0990     7152.9736
       595.7316       12.3750      0.023000      140.0960      346.7800       59.5380      0.420200        2.0260        1.0950     7137.9629
       595.8840       12.3780      0.023000      140.2600      347.5430       59.6080      0.411600        2.0240        1.0830     7129.6167
       596.0364       12.3760      0.020000      139.6140      348.6320       59.8140      0.415400        2.0120        1.0640     7162.6055
       596.1888       12.3720      0.018000      139.9300      348.3060       59.3600      0.431800        1.9980        1.0460     7146.4307
       596.3412       12.3720      0.023000      139.7730      346.5770       58.3040      0.447200        1.9970        1.0430     7154.4580
       596.4936       12.3750      0.026000      139.8390      346.2540       58.1340      0.445300        2.0090        1.0550     7151.0806
       596.6460       12.3780      0.022000      140.7910      346.7720       58.6780      0.433700        2.0180        1.0640     7102.7266
       596.7984       12.3740      0.016000      140.4620      347.8180       58.5360      0.433700        2.0120        1.0500     7119.3628
       596.9508       12.3700      0.016000      140.5600      347.3530       57.8240      0.442400        1.9960        1.0240     7114.3999
       597.1032       12.3710      0.021000      140.5940      347.2060       57.3900      0.438500        1.9870        1.0110     7112.6792
       597.2556       12.3720      0.027000      141.1900      347.8250       57.3620      0.417300        1.9960        1.0240     7082.6543
       597.4080       12.3730      0.026000      140.6780      348.5180       57.3920      0.405800        2.0120        1.0520     7108.4321
       597.5604       12.3740      0.018000      139.5770      349.0880       57.8080      0.420200        2.0160        1.0670     7164.5044
       597.7128       12.3730      0.015000      139.4160      349.5380       58.7410      0.440500        2.0090        1.0600     7172.7778
       597.8652       12.3710      0.017000      140.0480      348.6570       59.3800      0.441400        2.0020        1.0540     7140.4087
       598.0176       12.3710      0.015000      139.8570      348.3820       59.4880      0.436600        2.0010        1.0600     7150.1606
       598.1700       12.3720      0.010000      140.8820      348.5690       59.4390      0.448200        2.0030        1.0650     7098.1387
       598.3224       12.3680      0.011000      139.8480      348.1800       59.3890      0.462600        2.0010        1.0540     7150.6201
       598.4748       12.3650      0.015000      139.7910      347.4400       59.2260      0.452000        1.9950        1.0300     7153.5361
       598.6272       12.3660      0.015000      141.0220      347.6230       59.0340      0.424100        1.9850        1.0070     7091.0918
       598.7796       12.3670      0.016000      140.5370      347.3740       58.6070      0.407700        1.9820        0.9940     7115.5640
       598.9320       12.3650      0.019000      141.0060      346.9860       57.9780      0.405800        1.9870        0.9910     7091.8970
       599.0844       12.3640      0.020000      140.9700      347.7970       57.8480      0.411600        1.9920        0.9930     7093.7080
       599.2368       12.3660      0.020000      140.5100      348.5580       58.0980      0.423100        1.9910        0.9900     7116.9316
       599.3892       12.3710      0.022000      140.7470      348.3270       58.1000      0.448200        1.9870        0.9830     7104.9473
       599.5416       12.3750      0.023000      140.3280      348.3590       57.3520      0.474200        1.9830        0.9790     7126.1616
       599.6940       12.3760      0.022000      141.0380      348.2420       56.4450      0.470300        1.9840        0.9820     7090.2881
       599.8464       12.3760      0.021000      141.4200      348.1120       56.7360      0.433700        1.9910        0.9920     7071.1357
       599.9988       12.3740      0.021000      141.1100      348.6750       58.3760      0.406700        1.9950        0.9990     7086.6699
       600.1512       12.3700      0.019000      140.6080      348.6770       58.8720      0.407700        1.9920        0.9960     7111.9707
       600.3036       12.3680      0.019000      141.0790      348.1280       57.2580      0.419300        1.9840        0.9870     7088.2275
       600.4560       12.3680      0.021000      141.5120      347.7530       55.7420      0.428900        1.9830        0.9840     7066.5391
       600.6084       12.3660      0.024000      141.2230      347.5330       56.0480      0.433700        1.9910        0.9910     7080.9990
       600.7608       12.3650      0.024000      140.8080      347.4730       57.6070      0.434700        2.0010        1.0010     7101.8691
       600.9132       12.3680      0.022000      141.7670      348.6940       59.1760      0.435600        2.0010        1.0020     7053.8276
       601.0656       12.3670      0.022000      141.5010      347.4130       59.6440      0.439500        1.9960        0.9930     7067.0874
       601.2180       12.3630      0.026000      141.9690      347.0020       59.2120      0.438500        1.9920        0.9890     7043.7915
       601.3704       12.3600      0.028000      141.6020      347.0890       59.0280      0.436600        1.9940        0.9980     7062.0469
       601.5228       12.3600      0.027000      141.6710      347.0140       59.1350      0.449100        2.0010        1.0150     7058.6074
       601.6752       12.3650      0.024000      141.7220      347.3600       59.1290      0.467400        2.0060        1.0250     7056.0674
       601.8276       12.3720      0.022000      140.6400      348.1330       59.2440      0.474200        2.0050        1.0190     7110.3525
       601.9800       12.3780      0.022000      140.6720      348.2190       59.5590      0.470300        1.9970        1.0050     7108.7354
       602.1324       12.3790      0.023000      140.8420      349.0580       59.3500      0.471300        1.9920        0.9980     7100.1548
       602.2848       12.3780      0.024000      140.5780      349.7770       58.5410      0.461700        1.9930        1.0010     7113.4883
       602.4372       12.3750      0.024000      140.7940      349.7210       58.2190      0.438500        1.9970        1.0080     7102.5752
       602.5896       12.3740      0.022000      141.1400      349.8330       58.1340      0.419300        1.9970        1.0070     7085.1636
       602.7420       12.3740      0.021000      141.2980      350.2710       57.0260      0.413500        1.9920        0.9980     7077.2407
       602.8944       12.3710      0.021000      141.6650      349.4710       55.8230      0.428900        1.9860        0.9860     7058.9067
       603.0468       12.3700      0.022000      142.2390      349.7020       55.9800      0.456800        1.9830        0.9810     7030.4209
       603.1992       12.3710      0.027000      140.9200      349.1890       57.0390      0.463600        1.9900        0.9900     7096.2251
       603.3516       12.3730      0.030000      141.9310      349.4860       57.5260      0.445300        2.0040        1.0140     7045.6772
       603.5040       12.3740      0.024000      141.1870      350.0910       57.2440      0.432700        2.0110        1.0410     7082.8052
       603.6564       12.3730      0.016000      141.4890      349.9160       57.3490      0.440500        2.0060        1.0530     7067.6875
       603.8088       12.3710      0.012000      141.7660      349.5290       58.6360      0.458800        1.9940        1.0470     7053.8770
       603.9612       12.3720      0.011000      141.7090      350.7640       60.3710      0.471300        1.9870        1.0390     7056.7148
       604.1136       12.3730      0.015000      142.6560      351.5920       61.2020      0.466500        1.9960        1.0410     7009.8696
