~Version Information Block
VERS .                 2.00:  CWLS LOG ASCII STANDARD - VERSION 2.00
WRAP .                   NO:  One line per depth step
~Well Information Block
#MNEM.UNIT        Data Type   Information
#---------- ----------------  -----------
STRT .M            500.0244:  START DEPTH
STOP .M            620.1156:  STOP DEPTH
STEP .M              0.1524:  STEP
NULL .              -999.25:  NULL VALUE
COMP .                     :  COMPANY
WELL .               WELL#2:  WELL
~Curve Information Block
#MNEM.UNIT         API CODE   Curve Description
#---------- ----------------  -----------------
DEPTH.M                    :  Measured Depth
CAL  .IN            UNKNOWN:  CAL:EXTERNAL:rC:NONE:v1
DRHO .G/C3          UNKNOWN:  ZCOR:EXTERNAL:rC:NONE:v1
DT   .US/F          UNKNOWN:  DT::rC:NONE:v1
DTS  .US/F          UNKNOWN:  DTS:EXTERNAL:rC:NONE:v1
GR   .GAPI          UNKNOWN:  GR:EXTERNAL:rC:NONE:v1
NPHI .V/V           UNKNOWN:  NPHI_NORM:v0
RHOB .G/C3          UNKNOWN:  Z3EN:EXTERNAL:rC:NONE:v1
RT   .OHMM          UNKNOWN:  M3RX:EXTERNAL:rC:NONE:v1
VP   .FT/S                 :  Output Velocity
~Parameter Information Block
#MNEM.UNIT            Value   Description
#---------- ----------------  -----------
ELEV_TYPE.                   KB:  ELEV TYPE
LAT  .             100.8026:  LATITUDE
LON  .             100.4617:  LONGITUDE
~Other Information Block
~A        DEPTH            CAL           DRHO             DT            DTS             GR           NPHI           RHOB             RT             VP
# ...
       612.9528       12.3740      0.017000      155.3830      477.5800       91.3880      0.480900        2.1560        0.9740     6435.7104
       613.1052       12.3710      0.014000      155.5730      477.8750       92.1320      0.471300        2.1520        0.9710     6427.8506
       613.2576       12.3690      0.012000      155.2500      477.6480       92.2540      0.470300        2.1500        0.9740     6441.2236
       613.4100       12.3680      0.014000      155.3820      478.9340       91.4680      0.477100        2.1510        0.9810     6435.7520
       613.5624       12.3680      0.013000      155.1320      480.4840       91.4330      0.485700        2.1500        0.9900     6446.1230
       613.7148       12.3690      0.006000      155.2240      483.2880       92.5210      0.493400        2.1440        0.9950     6442.3027
       613.8672       12.3720      0.003000      155.4290      485.1160       93.4380      0.505000        2.1380        0.9880     6433.8057
       614.0196       12.3730      0.009000      156.0840      487.3850       93.8120      0.516600        2.1380        0.9710     6406.8066
       614.1720       12.3700      0.014000      157.5060      490.1320       94.9840      0.509800        2.1420        0.9540     6348.9648
       614.3244       12.3690      0.018000      159.1860      494.9870       96.7460      0.492500        2.1470        0.9410     6281.9595
       614.4768       12.3710      0.020000      158.8520      498.4790       97.7560      0.493400        2.1550        0.9340     6295.1675
       614.6292       12.3730      0.015000      158.9340      502.6420       97.2420      0.514600        2.1580        0.9320     6291.9199
       614.7816       12.3750      0.008000      158.9550      504.2790       96.1730      0.533000        2.1540        0.9310     6291.0884
       614.9340       12.3770      0.008000      159.1970      505.1270       95.6000      0.539700        2.1480        0.9330     6281.5254
       615.0864       12.3750      0.012000      159.8780      506.3170       95.4560      0.541600        2.1450        0.9370     6254.7690
       615.2388       12.3720      0.012000      159.0550      502.8670       95.7050      0.536800        2.1420        0.9440     6287.1338
       615.3912       12.3700      0.010000      158.6590      501.6650       96.4570      0.520400        2.1410        0.9490     6302.8257
       615.5436       12.3690      0.012000      158.8860      499.4260       97.0480      0.494400        2.1440        0.9550     6293.8208
       615.6960       12.3680      0.018000      159.3240      498.5530       97.5300      0.470300        2.1490        0.9610     6276.5181
       615.8484       12.3660      0.023000      159.0020      498.0580       98.7720      0.466500        2.1530        0.9630     6289.2290
       616.0008       12.3650      0.023000      158.9730      498.5020       99.6440      0.480000        2.1540        0.9630     6290.3760
       616.1532       12.3640      0.020000      159.7850      497.7610       98.7380      0.488600        2.1540        0.9650     6258.4097
       616.3056       12.3660      0.022000      159.9430      498.1830       97.1760      0.482800        2.1540        0.9690     6252.2275
       616.4580       12.3700      0.026000      160.4330      498.4510       96.8270      0.480000        2.1510        0.9720     6233.1318
       616.6104       12.3710      0.024000      159.8050      499.2050       97.5870      0.491500        2.1450        0.9680     6257.6270
       616.7628       12.3710      0.018000      159.3790      498.6710       98.4220      0.516600        2.1390        0.9490     6274.3525
       616.9152       12.3720      0.014000      159.7880      498.1470       98.4730      0.526200        2.1390        0.9260     6258.2925
       617.0676       12.3720      0.013000      160.0050      498.2140       97.7410      0.516600        2.1410        0.9230     6249.8047
       617.2200       12.3750      0.013000      160.1170      499.8220       97.4590      0.509800        2.1430        0.9430     6245.4326
       617.3724       12.3780      0.016000      159.7910      501.0830       97.8820      0.525200        2.1430        0.9620     6258.1748
       617.5248       12.3780      0.018000      159.7080      502.4330       97.5360      0.556100        2.1430        0.9650     6261.4272
       617.6772       12.3770      0.018000      160.6890      501.5990       96.0020      0.582100        2.1440        0.9610     6223.2017
       617.8296       12.3740      0.018000      160.6050      501.6280       95.4930      0.574400        2.1450        0.9590     6226.4565
       617.9820       12.3690      0.017000      159.7390      502.3340       96.7510      0.541600        2.1440        0.9590     6260.2119
       618.1344       12.3680      0.017000      159.5430      502.4120       98.4860      0.515600        2.1410        0.9570     6267.9028
       618.2868       12.3720      0.014000      159.7240      502.5660       99.1210      0.510800        2.1370        0.9540     6260.7998
       618.4392       12.3740      0.012000      160.4880      500.9100       98.7850      0.522400        2.1330        0.9510     6230.9951
       618.5916       12.3750      0.013000      160.5430      499.0360       98.4870      0.540700        2.1320        0.9500     6228.8608
       618.7440       12.3750      0.015000      159.4200      499.8910       97.6420      0.548400        2.1340        0.9540     6272.7388
       618.8964       12.3700      0.018000      158.9050      505.7240       95.6270      0.532000        2.1370        0.9580     6293.0684
       619.0488       12.3650      0.019000      158.6090      510.6210       94.7600      0.511800        2.1400        0.9630     6304.8125
       619.2012       12.3640      0.017000      159.6640      515.3170       96.5970      0.507900        2.1380        0.9660     6263.1523
       619.3536       12.3640      0.015000      159.7330      516.6500       98.5640      0.520400        2.1360        0.9660     6260.4473
       619.5060       12.3620      0.017000      159.2010      516.6500       98.5970      0.534900        2.1360        0.9650     6281.3672
       619.6584       12.3640      0.018000      158.7650      514.2430       97.2350      0.533900        2.1360        0.9670     6298.6177
       619.8108       12.3680      0.016000      159.3050      511.0950       95.9890      0.514600        2.1350        0.9700     6277.2671
       619.9632       12.3710      0.016000      160.2200      505.7890       96.4450      0.502100        2.1370        0.9720     6241.4180
       620.1156       12.3730      0.020000      159.7600      502.6120       97.7810      0.506000        2.1420        0.9740     6259.3892
