~Version Information Block
VERS .                 2.00:  CWLS LOG ASCII STANDARD - VERSION 2.00
WRAP .                  YES:  Multiple lines per depth step
~Well Information Block
#MNEM.UNIT        Data Type   Information
#---------- ----------------  -----------
STRT .F                3000:  START DEPTH
STOP .F                3120:  STOP DEPTH
STEP .F                 0.5:  STEP
NULL .              -999.25:  NULL VALUE
COMP .            Ewing Oil:  COMPANY
WELL .         Sue Ellen #4:  WELL
FLD  .      SouthFork Ranch:  FIELD
LOC  .                Plano:  LOCATION
CNTY .               Collin:  COUNTY
STAT .                Texas:  STATE
CTRY .                   US:  COUNTRY
API  .           1234512345:  API NUMBER
SRVC .  Unified Development:  SERVICE COMPANY
DATE .            1/11/1988:  LOG DATE
~Curve Information Block
#MNEM.UNIT         API CODE   Curve Description
#---------- ----------------  -----------------
DEPTH.F                    :  Depth
AO10 .OHMM                 :  ShalRes    NA
AO20 .OHMM                 :  ShalRes    NA
AO30 .OHMM                 :  MedRes     NA
AO60 .OHMM                 :  MedRes     NA
AO90 .OHMM                 :  XDeepRes   NA
AT10 .OHMM                 :  ShalRes    NA
AT20 .OHMM                 :  ShalRes    NA
AT30 .OHMM                 :  MedRes     NA
AT60 .OHMM                 :  MedRes     NA
AT90 .OHMM                 :  XDeepRes   NA
C_POR.%                    :  
C_RHOB.G/C3                 :  
C_RHOG.G/C3                 :  
C_SW .%                    :  
DT   .US/F                 :  Sonic
DT1R .US/F                 :  ShearSonic NA
DT2R .US/F                 :  ShearSonic NA
DT4P .US/F                 :  Sonic      NA
DT4S .US/F                 :  ShearSonic NA
DTCO .US/F                 :  Sonic      NA
NPHI .V/V                  :  Neutron    NA
NPOR .V/V                  :  Neutron    NA
PEFZ .B/E                  :  PEF        HRDD                              :NA
PHIT_311 .DEC              :  PhiT
RDEEP.OHMM                 :  XDeepRes   NA
RHO8 .G/C3                 :  Density    NA
RHOB .G/C3                 :  Density
RHOZ .G/C3                 :  Density    NA
SP   .MV                   :  SP         NA
SW_311.DEC                 :  Sw   
TEMP .F                    :  Temp
~Parameter Information Block
#MNEM.UNIT            Value   Description
#---------- ----------------  -----------
JUNK .                 0.28:  rifle range
RW   .OHMM             0.04:  Resistivity of Water
LATI .            34/34/4.4:  Latitude {DEG/MIN/SEC}
LONG .         -102/20/44.4:  Longitude {DEG/MIN/SEC}
B_JUNK.                   2:  B Factor
A_JUNK.                   2:  Saturation Speed
WELL_NAME.          well #4:  Well Name
~Other Information Block
~Ascii Log Data
# ...
         3090.0
       16.0063       14.5804       16.1963       16.1859       15.8151
       14.6163       13.6145       14.3385       14.5801       14.3416
     -999.2500     -999.2500     -999.2500     -999.2500       72.9078
      138.1190      133.8090       72.9078      130.1190       72.9078
      0.168500      0.140300        2.9701      0.058930       14.3416
        2.6755        2.6755        2.6536     -205.5000        1.0000
      160.0000
         3090.5
       12.4504       11.8774       12.6289       12.6142       12.3609
       14.6759       13.7284       14.2900       14.4112       14.4574
     -999.2500     -999.2500     -999.2500     -999.2500       71.2925
      137.5840      139.4190       71.2925      136.2400       71.2925
      0.154200      0.171300        2.9497      0.054738       14.4574
        2.6689        2.6689        2.6511     -205.4380        1.0000
      160.0000
         3091.0
       16.2761       14.8673       15.6047       14.4252       14.1672
       16.2074       14.8161       15.3571       15.1584       15.3899
     -999.2500     -999.2500     -999.2500     -999.2500       70.4680
      133.3010      132.2990       70.4680      132.8360       70.4680
      0.141800      0.141800        2.9210      0.052597       15.3899
        2.6481        2.6481        2.6560     -205.4380        1.0000
      160.0000
         3091.5
       15.4323       15.8334       16.4216       16.7592       16.4687
       15.7429       14.1757       15.5415       15.0645       15.3624
     -999.2500     -999.2500     -999.2500     -999.2500       71.1760
      133.8370      131.1140       71.1760      128.7100       71.1760
      0.141100      0.116000        2.9126      0.054436       15.3624
        2.6475        2.6475        2.6684     -205.3120        1.0000
      160.0000
         3092.0
       10.7109        9.2882        9.7269       10.3340       10.1572
       12.7263       11.5183       12.1649       12.1479       12.2441
     -999.2500     -999.2500     -999.2500     -999.2500       70.7050
      139.1450      135.6860       70.7050      131.3970       70.7050
      0.152500      0.153700        2.9573      0.053212       12.2441
        2.6753        2.6753        2.6703     -205.0620        1.0000
      160.0000
         3092.5
       13.1306       10.0324       11.1372       11.6145       11.4453
       13.2406       11.9149       12.4389       12.9277       12.7871
     -999.2500     -999.2500     -999.2500     -999.2500       71.1677
      136.8420      134.0850       71.1677      128.4640       71.1677
      0.154400      0.190500        2.9954      0.054414       12.7871
        2.6584        2.6584        2.6596     -205.3120        1.0000
      160.0000
         3093.0
       20.1016       16.7787       16.3580       16.9588       16.6497
       15.2012       13.9728       14.9692       15.1132       15.1625
     -999.2500     -999.2500     -999.2500     -999.2500       70.1516
      136.1340      134.7720       70.1516      131.8540       70.1516
      0.135800      0.130200        3.0288      0.051776       15.1625
        2.6544        2.6544        2.6496     -204.7500        1.0000
      160.0000
         3093.5
       17.5061       14.9265       16.9314       17.3716       17.0455
       15.7719       13.9313       15.2004       15.2190       15.1272
     -999.2500     -999.2500     -999.2500     -999.2500       71.6913
      137.6460      136.2340       71.6913      138.0590       71.6913
      0.140800      0.102600        3.0300      0.055774       15.1272
        2.6454        2.6454        2.6516     -205.0000        1.0000
      160.0000
         3094.0
       12.4308       11.4737       12.4320       12.8180       12.5969
       14.5530       13.0415       13.7742       13.9956       13.8544
     -999.2500     -999.2500     -999.2500     -999.2500       72.1744
      139.8940      137.6870       72.1744      135.8700       72.1744
      0.160700      0.160000        3.0473      0.057028       13.8544
        2.6662        2.6662        2.6565     -204.3120        1.0000
      160.0000
         3094.5
       13.3157       12.4766       13.0573       13.5804       13.3529
       14.1981       13.0070       13.7386       14.0625       13.7330
     -999.2500     -999.2500     -999.2500     -999.2500       71.4051
      137.8110      138.9100       71.4051      128.2170       71.4051
      0.170400      0.172300        3.0510      0.055031       13.7330
        2.6535        2.6535        2.6559     -204.3120        1.0000
      160.0000
         3095.0
       15.2150       13.8162       13.5097       13.7886       13.5654
       13.8445       12.7538       13.3802       13.6243       13.3013
     -999.2500     -999.2500     -999.2500     -999.2500       71.1180
      135.6620      135.7190       71.1180      129.1840       71.1180
      0.158300      0.143300        3.0248      0.054285       13.3013
        2.6571        2.6571        2.6543     -204.3120        1.0000
      160.0000
         3095.5
       11.7501       11.5100       12.0490       12.2875       12.1133
       14.0251       12.7829       13.3923       13.5793       13.3217
     -999.2500     -999.2500     -999.2500     -999.2500       70.0023
      135.3260      136.0590       70.0023      130.1500       70.0023
      0.148600      0.159700        2.9819      0.051388       13.3217
        2.6696        2.6696        2.6542     -204.0000        1.0000
      160.0000
         3096.0
       16.7640       15.1672       15.2546       15.1391       14.8751
       15.6143       14.5466       15.1589       15.4001       14.8633
     -999.2500     -999.2500     -999.2500     -999.2500       69.8519
      136.3950      134.9600       69.8519      131.3120       69.8519
      0.129600      0.131600        2.9411      0.050998       14.8633
        2.6519        2.6519        2.6540     -204.3120        1.0000
      160.0000
         3096.5
       24.7453       22.8002       20.2162       19.5709       19.2428
       18.6896       17.3735       17.8945       17.5758       17.4514
     -999.2500     -999.2500     -999.2500     -999.2500       70.6206
      132.0230      134.4820       70.6206      130.2820       70.6206
      0.121100      0.102700        2.9279      0.052993       17.4514
        2.6503        2.6503        2.6572     -204.1250        1.0000
      160.0000
         3097.0
       15.2125       14.5978       15.2888       14.9059       14.6455
       14.5505       14.5907       15.0040       14.8330       14.6614
     -999.2500     -999.2500     -999.2500     -999.2500       71.2272
      133.7880      133.9020       71.2272      133.6850       71.2272
      0.134900      0.109700        2.9749      0.054569       14.6614
        2.6595        2.6595        2.6614     -203.4380        1.0000
      160.0000
         3097.5
       10.4870       10.5275       11.4130       11.5511       11.3983
       12.9337       12.1534       12.7087       12.9102       12.6329
     -999.2500     -999.2500     -999.2500     -999.2500       73.2011
      135.8330      136.2100       73.2011      137.0870       73.2011
      0.151200      0.176700        3.0527      0.059690       12.6329
        2.6692        2.6692        2.6626     -203.6250        1.0000
      160.0000
         3098.0
       15.7949       14.0110       13.8334       13.8600       13.6417
       13.3320       12.2034       12.7986       12.7404       12.5225
     -999.2500     -999.2500     -999.2500     -999.2500       72.3544
      137.6870      134.8720       72.3544      131.6460       72.3544
      0.159600      0.161900        3.1093      0.057495       12.5225
        2.6589        2.6589        2.6598     -203.7500        1.0000
      160.0000
         3098.5
       12.5249       11.4508       12.9150       13.3606       13.1530
       13.3414       12.1790       12.7481       13.2903       12.6927
     -999.2500     -999.2500     -999.2500     -999.2500       73.3693
      137.0630      132.2600       73.3693      129.8060       73.3693
      0.161500      0.154900        3.1054      0.060125       12.6927
        2.6601        2.6601        2.6592     -203.6250        1.0000
      160.0000
